id;ref address;query;query lon;query lat;result 1;result 2;result 3;result 4;result 5
1;161 rue de bourgogne, orléans, france;bourgogne;1.912;47.9;rue de bourgogne, orléans, france;rue du faubourg de bourgogne, orléans, france;allée de bourgogne, saran, france;allée de bourgogne, chécy, france;bourgogne, tocane-saint-apre, france
0;9 rue du commandant rivière, paris, france;rivière;2.308;48.873;rue du commandant rivière, paris, france;place théodore rivière, paris, france;rue joseph rivière, courbevoie, france;rue de la rivière, le perreux-sur-marne, france;rue du commandant rivière, suresnes, france
495;la cerce, sauvigny-le-bois, france;cerce;3.967;47.497;rue de la cerce, sauvigny-le-bois, france;cerceaux, fresnay-l'évêque, france;cercennes du haut, pont-d'héry, france;rue de cercey, châtellenot, france;route de cercey, thoisy-le-désert, france
494;boulevard louison bobet, quiberon, france;bobet;-3.104;47.481;le bobet, grand-champ, france;rue louison bobet, le mans, france;allée louison bobet, villenave-d'ornon, france;allée louison bobet, levallois-perret, france;rue louison bobet, aulnay-sous-bois, france
493;29 rue sambre-et-meuse, paris, france;sambre-et-meuse;2.373;48.875;rue de sambre-et-meuse, paris, france;rue de sambre et meuse, houilles, france;avenue de sambre et meuse, gagny, france;rue sambre et meuse, le havre, france;rue sambre et meuse, berlaimont, france
492;5 rue marchand, corbeil-essonnes, france;marchand;2.467;48.604;rue marchand, corbeil-essonnes, france;rue marchand-feraoun, fleury-mérogis, france;rue marchand ferraoun, fleury-mérogis, france;allée des marchands, chilly-mazarin, france;rue des marchands, marolles-en-brie, france
491;5 rue des vieux moulins, meaux, france;moulins;2.877;48.96;rue des vieux moulins, meaux, france;grands moulins, paris, france;rue des grands moulins, france;rue des moulins, fontenay-sous-bois, france;rue des moulins gémeaux, saint-denis, france
490;20 rue jules horowitz, saint paul lès durance, france;horowitz;5.734;43.694;rue jules horowitz, grenoble, france;;;;
489;route nationale 96 quartier des vieilles tuileries, peyrolles-en-provence, france;tuileries;5.599;43.648;tuileries, forcalqueiret, france;lotissement les tuileries, marseille, france;domaine des tuileries, villeneuve-loubet, france;chemin des tuileries, meyreuil, france;quai des tuileries, paris, france
488;13 rue lagrange, paris, france;lagrange;2.348;48.851;rue lagrange, paris, france;rue léo lagrange, sainte-geneviève-des-bois, france;square léo lagrange, trappes, france;rue léo lagrange, trappes, france;rue lagrange, viry-châtillon, france
487;8 rue botanique, angers, france;botanique;-0.547;47.474;rue botanique, angers, france;allée du jardin botanique, bayeux, france;rue du jardin botanique, villers-lès-nancy, france;chemin du sentier botanique, vézeronce-curtin, france;sentier botanique, andrézieux-bouthéon, france
486;28 rue du cardinal lemoine, paris, france;lemoine;2.353;48.848;cité du cardinal lemoine, paris, france;rue du cardinal lemoine, paris, france;passage lemoine, paris, france;rue lemoine, boulogne-billancourt, france;rue jean lemoine, romainville, france
485;55 boulevard de vaugirard, paris, france;vaugirard;2.317;48.841;rue de vaugirard, paris, france;boulevard de vaugirard, paris, france;rue de vaugirard, noisy-le-grand, france;rue de vaugirard, meudon, france;route de vaugirard, meudon, france
484;27 boulevard de la république, chalon-sur-saône, france;république;4.849;46.783;boulevard de la république, chalon-sur-saône, france;place de la république, chalon-sur-saône, france;cours de la république, villeurbanne, france;rue de la république, lyon, france;place de la république, dijon, france
483;18 place du château, jonzac, france;château;-0.432;45.446;place du château, jonzac, france;château beaumont, cussac-fort-médoc, france;château de chenonceau, chenonceaux, france;château d'agassac, ludon-médoc, france;château de theon, cozes, france
482;place maurice faure, romans-sur-isère, france;faure;5.049;45.043;fauré, lupé, france;impasse andré fauré, montélimar, france;les faures, alixan, france;faures et bonanche, saint-julien-en-quint, france;avenue félix faure, lyon, france
481;10-12 boulevard maréchal foch, beaune, france;maréchal foch;4.836;47.027;boulevard maréchal foch, beaune, france;avenue maréchal foch, dijon, france;rue maréchal foch, le creusot, france;boulevard maréchal foch, grenoble, france;rue maréchal foch, baulme-la-roche, france
480;275 route de saint antoine ginestière, nice, france;ginestière;7.217;43.707;chemin de la ginestière, nice, france;chemin du château de la ginestière, nice, france;ancien chemin de la ginestière, nice, france;les hautes ginestières, villeneuve-loubet, france;route de la ginestière, carros, france
479;27 grand rue, lodève, france;grand rue;3.32;43.731;grand rue, lodève, france;grand rue, jonquières, france;grand rue, saint-andré-de-sangonis, france;grand rue, la vacquerie-et-saint-martin-de-castries, france;grand rue, ceyras, france
478;46 rue de la balance, avignon, france;balance;4.806;43.952;rue de la balance, avignon, france;balance, fournols, france;allée de la balance, aix-en-provence, france;rue des balances, vendargues, france;rue des balances, montpellier, france
477;route de manosque, la bastide-des-jourdans, france;manosque;5.64;43.786;la tour du mont d'or, manosque, france;boulevard de manosque, marseille, france;route de manosque, valensole, france;route de manosque, la bastide-des-jourdans, france;route de manosque, gréoux-les-bains, france
476;1 rue du faubourg saint-antoine, paris, france;saint-antoine;2.371;48.853;cour du marché saint-antoine, france;rue saint-antoine, paris, france;passage saint-antoine, paris, france;rue du faubourg saint-antoine, paris, france;rue du plateau saint-antoine, le chesnay, france
475;12 rue dante, nice, france;dante;7.254;43.696;rue dante, nice, france;traverse dante alighieri, mandelieu-la-napoule, france;rue edmond dantès, marseille, france;dante, la chapelle-des-fougeretz, france;avenue dante, strasbourg, france
474;2 rue jean corringer, vigneux-sur-seine, france;corringer;2.423;48.706;rue jean corringer, vigneux-sur-seine, france;;;;
473;12 quai des célestins, paris, france;célestins;2.361;48.852;quai des célestins, paris, france;ruelle des célestins, marcoussis, france;rue des célestins, drancy, france;rue des célestins, versailles, france;passage des célestins, serris, france
472;7 rue de la duchesse d'uzès, boursault, france;d'uzès;3.847;49.06;rue d'uzès, paris, france;route d'uzès, saint-hilaire-de-brethmas, france;rue d'uzès, verzenay, france;avenue d'uzès, le mesnil-saint-denis, france;allée d'uzès, liverdun, france
471;46 passage clemenceau, vichy, france;clemenceau;3.423;46.125;passage clemenceau, vichy, france;boulevard georges clemenceau, dijon, france;avenue georges clemenceau, montpellier, france;rue georges clemenceau, clermont-ferrand, france;boulevard georges clemenceau, bourges, france
470;251 rue gallieni, boulogne-billancourt, france;gallieni;2.227;48.835;rue gallieni, boulogne-billancourt, france;quai gallieni, suresnes, france;avenue du général galliéni, meudon, france;avenue gallieni, bagnolet, france;boulevard gallieni, issy-les-moulineaux, france
469;le moulin, conques, france;moulin;2.441;44.581;moulin de sanhes, saint-cyprien-sur-dourdou, france;moulin de saint-martial, saint-pantaléon, france;moulin d'arjac, nauviale, france;moulin de ribaute, duilhac-sous-peyrepertuse, france;moulin de limou, flagnac, france
468;7 rue brochant, paris, france;brochant;2.317;48.888;rue brochant, paris, france;;;;
467;4 rue violet, paris, france;violet;2.295;48.85;rue violet, paris, france;place violet, paris, france;villa violet, france;rue violette, bourg-la-reine, france;allée des violettes, suresnes, france
466;9 place des martyrs de la résistance, lesparre-médoc, france;résistance;-0.945;45.304;avenue de la résistance, lormont, france;rue des martyrs de la résistance, villeneuve-sur-lot, france;avenue des martyrs de la résistance, thouars, france;avenue de la résistance, la rochelle, france;rue de la résistance, saint-just-luzac, france
465;27 rue thiers, givet, france;thiers;4.826;50.138;rue thiers, givet, france;rue thiers, vireux-molhain, france;rond-point thiers, le raincy, france;avenue thiers, melun, france;avenue thiers, nice, france
464;7 place surian, vence, france;surian;7.114;43.722;place surian, vence, france;rue du commandant de surian, marseille, france;rue des surians, alleins, france;impasse surian, salon-de-provence, france;
463;43 rue du général de gaulle, niederbronn-les-bains, france;gaulle;7.646;48.95;rue du général de gaulle, niederbronn-les-bains, france;rue du général de gaulle, reichshoffen, france;rue du général de gaulle, gunstett, france;rue du général de gaulle, mertzwiller, france;rue du général de gaulle, lampertsloch, france
462;8 rue amédée bolle, sainte-croix-en-plaine, france;bolle;7.377;48.017;rue du bollenberg, niederentzen, france;rue du bollenberg, orschwihr, france;rue du bollenberg, gundolsheim, france;les bolles, labaroche, france;rue de la bolle, saint-dié-des-vosges, france
460;15 avenue de saria, serris, france;saria;2.791;48.842;avenue de saria, serris, france;sariaut, saint-julien-chapteuil, france;chemin de sariac, castelnau-magnoac, france;;
461;58 rue du maréchal foch, loos, france;maréchal foch;3.018;50.615;rue du maréchal foch, loos, france;avenue du maréchal foch, lambersart, france;rue du maréchal foch, haubourdin, france;rue du maréchal foch, lille, france;rue du maréchal foch, la madeleine, france
458;3 rue du port, cherbourg-en-cotentin, france;du port;-1.622;49.64;rue du port, france;rue du port du becquet, france;rue du vieux port, flamanville, france;rue du grand port, flamanville, france;rue du port, barneville-carteret, france
459;117 rue monge, paris, france;monge;2.351;48.839;rue monge, paris, france;galerie mouffetard monge, paris, france;place monge, paris, france;rue gaspard monge, créteil, france;rue mongenot, paris, france
456;33 rue de la borie, égletons, france;borie;2.047;45.401;rue de la borie, égletons, france;borie d'imbert, rocamadour, france;borie de gaillard, bétaille, france;borie de l'alé, miers, france;la borie, corrèze, france
457;5 grand rue, logelheim, france;grand rue;7.408;48.021;grand rue, horbourg-wihr, france;grand rue, colmar, france;grand-rue, eguisheim, france;grand'rue, strasbourg, france;grand rue, bischwihr, france
455;43 avenue de la gare, sarlat-la-canéda, france;la gare;1.219;44.878;avenue de la gare, sarlat-la-canéda, france;la gare, rocamadour, france;la gare, saint-denis-catus, france;la gare, romanèche-thorins, france;la gare, reignac-sur-indre, france
454;6 rue etienne marcel, paris, france;marcel;2.35;48.864;rue étienne marcel, paris, france;passage marcel landowski, france;rond-point des champs elysées-marcel dassault, paris, france;rue marcel sembat, paris, france;place marcelin berthelot, paris, france
453;27 avenue armand guillebaud, antony, france;guillebaud;2.307;48.749;avenue armand guillebaud, antony, france;rue de guillebaudon, chichery, france;la guillebauderie, tortezais, france;la guillebaudière, luchapt, france;les guillebaudières, saint-germain-sur-renon, france
452;90 cours de vincennes, paris, france;vincennes;2.407;48.847;cours de vincennes, paris, france;fort de vincennes, paris, france;rue de vincennes, montreuil, france;vincennes, la fontaine-saint-martin, france;boulevard de vincennes, fontenay-sous-bois, france
451;132 rue lecourbe, paris, france;lecourbe;2.301;48.842;rue lecourbe, france;villa lecourbe, paris, france;rue lecourbe, lons-le-saunier, france;rue du général lecourbe, besançon, france;rue du général lecourbe, belfort, france
450;20 place charles de gaulle, saint-germain-en-laye, france;gaulle;2.095;48.897;avenue charles de gaulle, neuilly-sur-seine, france;place charles de gaulle, paris, france;avenue charles de gaulle, bois-colombes, france;avenue du général de gaulle, le vésinet, france;avenue du général de gaulle, l'étang-la-ville, france
449;168 cours berriat, grenoble, france;berriat;5.705;45.189;cours berriat, grenoble, france;place berriat, vif, france;;;
448;30 passage de la bourgade, biot, france;bourgade;7.097;43.628;passage de la bourgade, biot, france;rue de la bourgade, tourrettes-sur-loup, france;rue de la bourgade, cipières, france;rue de la bourgade, l'escarène, france;route de la bourgade, le muy, france
447;37 6-39 rue pierre-henri mauger, contres, france;mauger;1.429;47.419;rue pierre-henri mauger, contres, france;rue de la maugerie, vienne-en-val, france;route des maugeres, faverolles-sur-cher, france;la maugerie, thoury, france;route de la maugerie, thoury, france
446;43 rue castillon, toulon, france;castillon;5.94;43.11;rue castillon, toulon, france;castillon, sabran, france;la castillonne, saint-zacharie, france;chemin de castillone, bouc-bel-air, france;castillon, bessèges, france
445;36 rue de bagnolet, paris, france;bagnolet;2.398;48.857;rue de bagnolet, paris, france;bagnolet, saint-outrille, france;bagnolet, blanquefort, france;bagnolet, trémouille-saint-loup, france;impasse des bagnolets, avenay-val-d'or, france
443;38 rue de cambrai, lille, france;cambrai;3.071;50.624;rue de cambrai, lille, france;voie communale landas 32 rue cambrai, lille, france;boulevard de cambrai, roubaix, france;rue de cambrai, douai, france;rue de cambrai, tourcoing, france
444;22 place henri brousse, meudon, france;brousse;2.241;48.808;place henri brousse, meudon, france;rue du docteur paul brousse, paris, france;brousse pavé, saint-clément-rancoudray, france;brousse le château, brousse-le-château, france;brousse, saint-ciers-champagne, france
442;2 rue ramey, paris, france;ramey;2.348;48.887;rue ramey, paris, france;passage ramey, paris, france;lotissement le rameyron, sérignan-du-comtat, france;rue claude ramey, dijon, france;rameyre ouest, ruch, france
441;3 rue des faussets, bordeaux, france;faussets;-0.57;44.841;rue des faussets, bordeaux, france;;;;
440;8 rue majour, brive-la-gaillarde, france;majour;1.532;45.16;rue majour, brive-la-gaillarde, france;square majour, brive-la-gaillarde, france;majoureau, caudrot, france;majourals, saint-chels, france;majouraou, saint-thomas, france
439;3 rue basse, verneuil-sur-seine, france;basse;1.976;48.981;rue basse, verneuil-sur-seine, france;basse rue, lihus, france;sentier des basses parties, triel-sur-seine, france;chemin du moulin basset, saint-denis, france;basse rue, groffliers, france
438;4 cours jean jaurès, grenoble, france;jaurès;5.72;45.192;cours jean jaurès, grenoble, france;cours jean jaurès, échirolles, france;avenue jean jaurès, fontaine, france;grand'rue jean jaures, bourg-de-péage, france;rue jean jaurès, seyssinet-pariset, france
437;2 place de la chapelle neuve, montpellier, france;neuve;3.879;43.613;place de la chapelle neuve, montpellier, france;avenue de la fontaine neuve, béziers, france;rue neuve, lavérune, france;rue neuve, villeneuve-lès-maguelone, france;rue neuve des horts, fabrègues, france
436;lieu dit 'la fabrègues', estaing, france;fabrègues';2.695;44.545;fabrègues, estaing, france;fabrègues, flavin, france;fabrègues, golinhac, france;fabrègues, leynhac, france;fabrègues, escandolières, france
435;29 rue de l'exposition, paris, france;l'exposition;2.303;48.857;rue de l'exposition, paris, france;passage de l'exposition universelle, châlons-en-champagne, france;;;
434;153 rue de lourmel, paris, france;lourmel;2.284;48.84;rue de lourmel, paris, france;lourmel, orgères, france;lourmel, noyal-châtillon-sur-seiche, france;lourmel, pleudihen-sur-rance, france;lourmel, plélan-le-petit, france
433;40 route de frangy, meythet, france;frangy;6.092;45.915;route de frangy, france;route de frangy, viry, france;route de frangy, choisy, france;route de frangy, cercier, france;route de frangy, saint-julien-en-genevois, france
432;10 rue des tonneliers, bayonne, france;tonneliers;-1.474;43.49;rue des tonneliers, bayonne, france;avenue des tonneliers, soorts-hossegor, france;impasse des tonneliers, dax, france;rue des tonneliers, castets, france;impasse des tonneliers, mont-de-marsan, france
431;58 rue vasco de gama, paris, france;de gama;2.284;48.836;route de gamaches, les thilliers-en-vexin, france;route de gamaches, villers-en-vexin, france;rue de gamaches, bouillancourt-en-séry, france;route de gamaches, monchaux-soreng, france;au chemin de gamaches, frettemeule, france
430;2 place de lisbonne - centre commercial odysseum, montpellier, france;odysseum;3.92;43.605;;;;;
429;602 rue louis saint-just, saint-maximin, france;saint-just;2.472;49.245;rue louis saint-just, saint-maximin, france;rue saint-just, saint-maximin, france;péri saint-just, saint-étienne-du-rouvray, france;rue de saint-just des marais, beauvais, france;place de saint-just des marais, beauvais, france
428;104 rue de lille, mouvaux, france;lille;3.132;50.699;rue de lille, mouvaux, france;rue alain de lille, lille, france;rue de lille, tourcoing, france;rue marceau hellemmes, lille, france;rue nationale, lille, france
427;7 avenue de saint-germain, maisons-laffitte, france;saint-germain;2.144;48.945;avenue de saint-germain, maisons-laffitte, france;boulevard saint-germain, paris, france;place saint-germain des prés, paris, france;rue saint-germain l'auxerrois, paris, france;route de saint-germain, montesson, france
426;55 rue du faubourg montmartre, paris, france;montmartre;2.34;48.876;rue du faubourg montmartre, paris, france;boulevard montmartre, paris, france;galerie montmartre, paris, france;rue montmartre, paris, france;cité montmartre, paris, france
425;59 rue boulainvilliers, paris, france;boulainvilliers;2.275;48.858;rue de boulainvilliers, paris, france;avenue de boulainvilliers, rocquencourt, france;;;
424;20 rue des halles, paris, france;halles;2.346;48.86;rue des halles, paris, france;halle aux farines, paris, france;halles martenot, place des lices, rennes, france;halles sainte-claire, place sainte-claire, grenoble, france;les halles, dijon, france
423;rue des arceaux, angoulême, france;arceaux;0.158;45.649;rue des arceaux, angoulême, france;impasse des arceaux, nersac, france;boulevard des arceaux, montpellier, france;passage des arceaux, saint-loubès, france;rue des arceaux, beaurepaire, france
422;35 rue de la roquette, paris-11e-arrondissement, france;roquette;2.373;48.855;cité de la roquette, france;rue de la roquette, paris, france;rue roquette, lyon, france;la roquetterie, janvilliers, france;la roquette, france
421;11 rue charles pierrugues, mandelieu-la-napoule, france;pierrugues;6.941;43.523;;;;;
420;140 avenue de saint-ouen, paris, france;saint-ouen;2.329;48.896;avenue de saint-ouen, paris, france;impasse saint-ouen, france;quai de saint-ouen, saint-ouen, france;saint-ouen, favières, france;pont de saint-ouen, l'île-saint-denis, france
419;80 rue meynadier le suquet, cannes, france;suquet;7.012;43.552;rue du suquet, cannes, france;place du suquet, cannes, france;suquet, utelle, france;chemin de la suquette, antibes, france;allée du suquet vaugrenier, villeneuve-loubet, france
418;3 rue amédée viii de savoie, saint-julien-en-genevois, france;savoie;6.081;46.144;savoie stockage distribution, route de la gare, viry, france;savoie labo, le bourget-du-lac, france;rue des savoie, annemasse, france;rue louis de savoie, aix-les-bains, france;rue béatrice de savoie, la motte-servolex, france
417;17 rue saint-rémi, bordeaux, france;saint-rémi;-0.571;44.841;rue saint-rémi, bordeaux, france;saint-rémi, chenac-saint-seurin-d'uzet, france;chemin de saint-rémi, chenac-saint-seurin-d'uzet, france;rue saint-rémi, chamalières, france;place saint-rémi, mourioux-vieilleville, france
416;42 route de galice, aix-en-provence, france;galice;5.425;43.531;rue du pont de galice, aix-en-provence, france;route de galice, aix-en-provence, france;domaine de galice, aix-en-provence, france;résidence la galicette, aix-en-provence, france;avenue galice, marseille, france
415;13 boulevard carnot, valbonne, france;carnot;7.008;43.642;boulevard carnot, valbonne, france;boulevard sadi carnot, le cannet, france;boulevard carnot, le cannet, france;rue sadi carnot, antibes, france;avenue sadi carnot, villefranche-sur-mer, france
414;15 boulevard de la corniche, annecy, france;corniche;6.137;45.89;boulevard de la corniche, annecy, france;corniche président john fitzgerald kennedy, marseille, france;corniche fleurie, nice, france;corniche des hauts forts, morzine, france;corniche andré de joly, nice, france
413;130 quai du port, marseille, france;du port;5.368;43.296;tunnel du vieux-port, marseille, france;quai du port, marseille, france;rue du portail, marseille, france;rue du portugal, marseille, france;quai du port île ratonneau, marseille, france
411;95 rue montaigne, marseille, france;montaigne;5.417;43.304;rue montaigne, marseille, france;impasse montaigne, bouc-bel-air, france;résidence le montaigne, aix-en-provence, france;impasse montaigne 2, rognac, france;boulevard montaigne, rognac, france
412;28 avenue de paris, soisy-sous-montmorency, france;paris;2.293;48.99;avenue de paris, paray-vieille-poste, france;rue de paris, clichy, france;avenue des champs-élysées, paris, france;paris, seillons-source-d'argens, france;rond-point de paris, roissy-en-france, france
410;52 rue la fayette, paris, france;fayette;2.341;48.875;rue la fayette, paris, france;allée la fayette, bourg-la-reine, france;rue la fayette, colombes, france;rue la fayette, alfortville, france;avenue la fayette, tremblay-en-france, france
409;123 rue des landes, plaisance-du-touch, france;landes;1.247;43.552;rue des landes, plaisance-du-touch, france;boulevard des landes, estancarbon, france;rue des landes, léguevin, france;landes ouest, landorthe, france;allée des landes, tournefeuille, france
408;8 rue du doyenné, le mans, france;doyenné;0.198;48.009;rue du doyenné, le mans, france;boulevard du doyenné, angers, france;passage du doyenné, angers, france;rue du doyenné, sillé-le-guillaume, france;square du doyenné, angers, france
407;97 avenue d'aquitaine, carbon-blanc, france;d'aquitaine;-0.507;44.891;rue d' aquitaine, pessac, france;rue d'aquitaine, hourtin, france;avenue d ' aquitaine, moulin-neuf, france;rue d'aquitaine, pau, france;rue d' aquitaine, montboyer, france
406;8 rue saint-hilaire ( la-varenne-saint-hilaire), saint-maur-des-fossés, france;la-varenne-saint-hilaire);2.514;48.793;la varenne, saint-hilaire-la-gravelle, france;la varenne, talmont-saint-hilaire, france;;;
405;17 rue carnot, bois-colombes, france;carnot;2.269;48.914;rue carnot, bois-colombes, france;avenue carnot, paris, france;rue sadi carnot, puteaux, france;rue sadi carnot, montrouge, france;boulevard carnot, carrières-sur-seine, france
404;21 avenue baille, marseille, france;baille;5.387;43.287;boulevard baille, marseille, france;rue rené baillé, cavaillon, france;impasse baillé, toulon, france;bailleau le pin, bailleau-le-pin, france;baillé, largentière, france
403;89 rue lemercier, paris, france;lemercier;2.32;48.889;rue lemercier, paris, france;cité lemercier, paris, france;rue jacques lemercier, versailles, france;allée jacques lemercier, versailles, france;rue lemercier, wissous, france
402;5 impasse des sables, merry-sur-yonne, france;sables;3.646;47.563;impasse des sables, merry-sur-yonne, france;chemin des sables du cul de chien, noisy-sur-école, france;les sables, arcy-sur-cure, france;sables de beauregard, châtillon-sur-indre, france;rue des sables d'or, le mans, france
401;5 rue ambroise pauffert, neuville-sur-saône, france;pauffert;4.84;45.876;;;;;
400;45 rue brancion, paris, france;brancion;2.304;48.834;rue brancion, paris, france;square brancion, paris, france;brancion, martailly-lès-brancion, france;rue brancion, saint-germain-en-laye, france;rue brancion, le quesnoy, france
399;39 avenue galois, bourg-la-reine, france;galois;2.322;48.777;avenue galois, france;rue evariste galois, sartrouville, france;rue evariste galois, paris, france;rue galois, maurepas, france;rue evariste galois, schiltigheim, france
398;62 rue césaria évora, paris, france;évora;2.374;48.898;rue cesaria evora, aubervilliers, france;allée d'évora, rennes, france;;;
397;64 rue daguerre, paris, france;daguerre;2.327;48.835;rue daguerre, paris, france;passage jacques daguerre, rueil-malmaison, france;rue jacques daguerre, rueil-malmaison, france;allée jacques daguerre, vincennes, france;rue daguerre, cormeilles-en-parisis, france
396;1 rue damrémont, paris, france;damrémont;2.332;48.887;rue damrémont, paris, france;villa damrémont, paris, france;allée damrémont, sevran, france;rue damrémont, chaumont, france;allée damrémont, boulogne-sur-mer, france
395;24 avenue de la république, paris, france;république;2.37;48.866;place de la république, paris, france;avenue de la république, paris, france;place de la république, levallois-perret, france;place de la republique, clichy, france;avenue de la république, aubervilliers, france
394;69 rue guillaume puy, avignon, france;guillaume puy;4.814;43.945;rue guillaume puy, avignon, france;rue guillaume du puy, arles, france;rue guillaume de puylaurens, montpellier, france;rue de la croix saint-guillaume, orcet, puy-de-dôme, france;chemin de la croix saint-guillaume, mezel, puy-de-dôme, france
392;14 faubourg rivotte, besançon, france;rivotte;6.034;47.232;rue rivotte, besançon, france;faubourg rivotte, besançon, france;porte rivotte, besançon, france;rivotte, vincelottes, france;
393;18 rue joseph vernet, avignon, france;vernet;4.804;43.95;rue joseph vernet, avignon, france;rue horace vernet, avignon, france;impasse claude vernet, sorgues, france;boulevard joseph vernet, marseille, france;vernet, alixan, france
390;34 rue saint-barthélémy, melun, france;saint-barthélémy;2.656;48.542;rue saint-barthélémy, melun, france;saint-barthélémy, traînel, france;rue de saint-barthélémy, châteauneuf-sur-loire, france;saint-barthélémy, unverre, france;saint-barthélémy, saint-germain-du-corbeïs, france
391;9 place du vieux marché, rouen, france;marché;1.088;49.443;place du vieux marché, rouen, france;place du marché saint-honoré, paris, france;rue du marché saint-honoré, paris, france;marché des enfants-rouges, rue de bretagne, paris, france;marché couvert, rue du général leclerc, houlgate, france
389;22 rue daubenton, paris, france;daubenton;2.354;48.841;rue daubenton, paris, france;rue louis daubenton, roissy-en-brie, france;rue daubenton, sainte-geneviève-des-bois, france;allée daubenton, montgeron, france;allée louis daubenton, le plessis-trévise, france
388;231 avenue porte des alpes, le plan-du-var, france;alpes;7.197;43.858;route des alpes, villars-sur-var, france;avenue des alpes, cagnes-sur-mer, france;ancienne route des alpes, aix-en-provence, france;avenue des alpes, gréoux-les-bains, france;impasse des alpes, saint-paul-de-vence, france
386;69 rue des dames, paris, france;dames;2.321;48.884;rue des dames, paris, france;rue des dames augustines, neuilly-sur-seine, france;rue damesme, paris, france;impasse damesme, paris, france;allée des dames, paris, france
387;129 cours de l'argonne, bordeaux, france;l'argonne;-0.577;44.827;avenue de l'argonne, mérignac, france;rue de l'argonne, libourne, france;l'argonnette, bellevigne-en-layon, france;rue de l'argonne, paris, france;cours de l'argonne, bordeaux, france
385;5 place notre dame du mont, marseille, france;du mont;5.384;43.292;rue du mont de piété, marseille, france;du mont boron, nice, france;la tour du mont d'or, manosque, france;rue du mont saint-bernard, marseille, france;impasse du mont blanc, marseille, france
384;chemin du chêne, civrieux-d'azergues, france;chêne;4.707;45.858;chemin du chêne, civrieux-d'azergues, france;chêne patouillard, bully, france;chenevière, pollionnay, france;chêne haut, charentay, france;chenevatière, saint-genis-l'argentière, france
383;1 chemin de vilaine, buzançais, france;vilaine;1.422;46.889;chemin de vilaines, buzançais, france;vilaine, azay-le-ferron, france;vilaine, saint-pierre-de-maillé, france;vilaines, varennes, france;vilaine bouchard, le pêchereau, france
382;108 boulevard du montparnasse, paris, france;montparnasse;2.329;48.842;boulevard du montparnasse, paris, france;rue du montparnasse, paris, france;montparnassetornet, avenue du maine, paris, france;square de montparnasse, cholet, france;rue de montparnasse, sallaumines, france
381;81 rue léon frot, paris, france;léon frot;2.384;48.858;rue léon frot, paris, france;rue léon frot, souppes-sur-loing, france;;;
380;1 rue keller, paris, france;keller;2.377;48.854;rue keller, paris, france;boulevard kellermann, paris, france;rue kellermann, rosny-sous-bois, france;avenue kellermann, soisy-sous-montmorency, france;avenue robert keller, viry-châtillon, france
379;80b rue de la république, aubagne, france;république;5.571;43.29;rue de la république, aubagne, france;rue de la république, marseille, france;avenue de la république, plan-de-cuques, france;boulevard de la république, aix-en-provence, france;boulevard de la république, la ciotat, france
378;16 rue des blanchers, toulouse, france;blanchers;1.438;43.602;rue des blanchers, toulouse, france;les blanchers, paslières, france;;;
377;4 rue des brioleurs, saint-gatien-des-bois, france;brioleurs;0.19;49.347;rue des brioleurs, saint-gatien-des-bois, france;chemin des brioleurs, jaulzy, france;;;
376;13 place du concert, lille, france;concert;3.061;50.642;place du concert, lille, france;zone d'aménagement concerté du val de deûle i, quesnoy-sur-deûle, france;rue du concert, villeneuve-d'ascq, france;zone d'aménagement concerté de la viscourt, halluin, france;zone d'aménagement concerté de l'europe, orchies, france
375;5 rue du maréchal juin, strasbourg, france;maréchal juin;7.76;48.578;rue du maréchal juin, strasbourg, france;rue maréchal juin, obernai, france;rue du maréchal juin, obernai, france;avenue du maréchal juin, nancy, france;rue du maréchal juin, metz, france
374;102 avenue des nations, yutz, france;nations;6.196;49.362;avenue des nations, yutz, france;avenue des nations, maizières-lès-metz, france;rue des nations, vandœuvre-lès-nancy, france;place des nations, freyming-merlebach, france;boulevard des nations, mulhouse, france
373;874 promenade charles de gaulle, six-fours-les-plages, france;gaulle;5.843;43.093;avenue général de gaulle, ollioules, france;route général de gaulle, le revest-les-eaux, france;place général de gaulle, la valette-du-var, france;avenue du général charles de gaulle, draguignan, france;place de gaulle, le beausset, france
372;1 rue montesquieu, nantes, france;montesquieu;-1.566;47.213;rue montesquieu, nantes, france;passage montesquieu, angers, france;rue montesquieu, angers, france;place montesquieu, cholet, france;rue montesquieu, la roche-sur-yon, france
371;161 rue du levant, calvisson, france;levant;4.202;43.783;rue du levant, calvisson, france;avenue du levant, congénies, france;avenue du levant, vergèze, france;rue du levant, codognan, france;rue du levant, uchaud, france
370;2622 rue de lille, sainghin-en-mélantois, france;lille;3.153;50.592;rue alain de lille, lille, france;rue nationale, lille, france;rue de lille, sainghin-en-mélantois, france;rue marceau hellemmes, lille, france;rue solférino, lille, france
369;18 boulevard aristide briand, suresnes, france;briand;2.202;48.863;avenue aristide briand, arcueil, france;boulevard aristide briand, savigny-sur-orge, france;place aristide briand, charenton-le-pont, france;rue aristide briand, conflans-sainte-honorine, france;boulevard aristide briand, montreuil, france
368;6 rue papillon, paris, france;papillon;2.348;48.876;rue papillon, paris, france;rue des papillons, montreuil, france;allée des papillons, rosny-sous-bois, france;rue des papillons, sevran, france;allée des papillons, villiers-sur-marne, france
367;13 rue maréchal joffre, aix-en-provence, france;joffre;5.453;43.527;rue du maréchal joffre, aix-en-provence, france;joffret, gassin, france;boulevard maréchal joffre, toulon, france;place maréchal joffre, hyères, france;boulevard maréchal joffre, les pennes-mirabeau, france
366;173 boulevard saint-germain, paris, france;saint-germain;2.331;48.854;boulevard saint-germain, paris, france;place saint-germain des prés, paris, france;rue saint-germain l'auxerrois, paris, france;cité saint-germain, les lilas, france;montagne de saint-germain, saint-germain-lès-corbeil, france
364;158 rue de bourgogne, orléans, france;bourgogne;1.912;47.901;rue de bourgogne, orléans, france;rue du faubourg de bourgogne, orléans, france;allée de bourgogne, saran, france;allée de bourgogne, chécy, france;bourgogne, tocane-saint-apre, france
365;148 boulevard jean jaurès, houilles, france;jaurès;2.204;48.922;boulevard jean jaurès, houilles, france;rue jean jaurès, levallois-perret, france;avenue jean jaurès, paris, france;rue jean jaurès, puteaux, france;avenue jean jaurès, argenteuil, france
363;6 avenue charles de gaulle, rochefort, france;gaulle;-0.96;45.935;avenue charles de gaulle, rochefort, france;avenue du général de gaulle, tonnay-charente, france;avenue du gén de gaulle, moëze, france;place du général de gaulle, trizay, france;avenue du gén de gaulle, port-des-barques, france
362;212 bis boulevard pereire, paris, france;pereire;2.287;48.88;boulevard pereire, paris, france;villa pereire, paris, france;rue pereire, saint-germain-en-laye, france;résidence pereire, saint-germain-en-laye, france;parc pereire, saint-germain-en-laye, france
360;13 rue des filatiers, toulouse, france;filatiers;1.444;43.598;rue des filatiers, toulouse, france;ancien chemin des filatiers, anzin-saint-aubin, france;rue des filatiers, anzin-saint-aubin, france;chemin des filatiers, sainte-catherine, france;sentier des filatiers, lesquin, france
361;2 boulevard de la république, saint-cloud, france;république;2.208;48.843;boulevard de la république, saint-cloud, france;boulevard de la république, boulogne-billancourt, france;place de la république, levallois-perret, france;place de la république, paris, france;rue de la république, suresnes, france
358;69 rue de croulebarbe, paris, france;croulebarbe;2.349;48.831;rue de croulebarbe, france;;;;
359;51 rue de merlan, noisy-le-sec, france;merlan;2.466;48.891;rue de merlan, noisy-le-sec, france;chemin du merlan, bondy, france;rue de merlange, saint-germain-laval, france;chemin de la merlande, saint-augustin, france;merlande nord, la chapelle-gonaguet, france
356;34 rue etienne d'orves, le pré-saint-gervais, france;d'orves;2.401;48.886;;;;;
357;87 rue jean de la fontaine, paris, france;fontaine;2.265;48.848;fontaine wallace, paris, france;rue jean de la fontaine, paris, france;square la fontaine, paris, france;avenue de fontainebleau, le kremlin-bicêtre, france;rue pierre fontaine, france
354;3 avenue de bohlen, vaulx-en-velin, france;bohlen;4.921;45.765;avenue de bohlen, vaulx-en-velin, france;;;;
355;561 route du bout fleuri, paluel, france;fleuri;0.649;49.845;fleurine, nouvoitou, france;cour du panier fleuri, paris, france;fleuriant, sublaines, france;route du village fleuri, hautot-le-vatois, france;rue fleurie, lindebeuf, france
352;219 boulevard de tournai, villeneuve-d'ascq, france;tournai;3.133;50.613;boulevard de tournai, villeneuve-d'ascq, france;rue de tournai, lille, france;pont de tournai, lille, france;rue de tournai, tourcoing, france;rue de tournai, lannoy, france
353;20 place bellecour, lyon, france;bellecour;4.833;45.756;place bellecour, lyon, france;bellecour, neuville-les-dames, france;chemin de bellecour, sainte-anne-sur-gervonde, france;rue bellecour, chalamont, france;bellecour, la chapelle-aux-chasses, france
350;62 rue breteuil, marseille, france;breteuil;5.377;43.288;rue breteuil, marseille, france;breteuil, épieds, france;place de breteuil, paris, france;avenue de breteuil, paris, france;rue de breteuil, montigny-en-gohelle, france
351;3 place sainte catherine, lille, france;catherine;3.057;50.639;place du marché sainte-catherine, france;rue catherine rose delannoy, linselles, france;rue catherine puig, montreuil, france;rue du clos sainte-catherine, bry-sur-marne, france;place sainte-catherine, honfleur, france
348;1 rue alfred nobel, sainte-marie, france;nobel;3.024;42.731;rue alfred nobel, montpellier, france;rue nobel, le soler, france;rue alfred nobel, albi, france;allée alfred nobel, le mans, france;avenue alfred nobel, pau, france
349;34 rue de verdun, suresnes, france;verdun;2.229;48.873;rue de verdun, suresnes, france;140 rue de verdun, puteaux, france;boulevard de verdun, courbevoie, france;avenue de verdun, bois-colombes, france;avenue de verdun, châtillon, france
347;10 cours gambetta, tarbes, france;gambetta;0.073;43.232;cours gambetta, tarbes, france;rue gambetta, aureilhan, france;place gambetta, bordeaux, france;rue gambetta, toulouse, france;rue léon gambetta, saint-jean-de-luz, france
346;3 rue du pas saint-georges, bordeaux, france;saint-georges;-0.572;44.84;impasse du passage saint-georges, bordeaux, france;rue du pas-saint-georges, bordeaux, france;saint-georges, saint-émilion, france;rue champagne saint-georges, saint-georges-des-coteaux, france;rue de champagne saint-georges, saintes, france
344;73 avenue marceau, paris, france;marceau;2.297;48.871;avenue marceau, paris, france;rue marceau delorme, bois-colombes, france;avenue marceau, courbevoie, france;rue marceau, montreuil, france;résidence marceau normandie, courbevoie, france
345;rue des frênes, pannes, france;frênes;2.668;47.992;rue des frênes, pannes, france;avenue des frênes, montévrain, france;allée des frênes, montgeron, france;rue des frênes, saint-germain-laval, france;avenue des frênes, morsang-sur-orge, france
343;35 rue du loup, bordeaux, france;du loup;-0.573;44.838;rue du loup, bordeaux, france;chemin du loup, yvrac, france;chemin du passage de loup, bassens, france;chemin du passage du loup, ambarès-et-lagrave, france;impasse du loup, cestas, france
342;32 place de provence, guillaumes, france;provence;6.853;44.09;place de provence, guillaumes, france;boulevard b de trans en provence, draguignan, france;boulevard joseph bernard de trans en provence, draguignan, france;traverse joseph bernard de trans en provence, draguignan, france;rue joannon marcel provence, aix-en-provence, france
341;52 avenue de la porte de villiers, levallois-perret, france;villiers;2.284;48.886;avenue de villiers, paris, france;rue de villiers, neuilly-sur-seine, france;villa de villiers, neuilly-sur-seine, france;rue de villiers, montreuil, france;rue villiers de l'isle adam, paris, france
340;138 quai du port, marseille, france;du port;5.367;43.296;tunnel du vieux-port, marseille, france;quai du port, marseille, france;rue du portail, marseille, france;rue du portugal, marseille, france;quai du port île ratonneau, marseille, france
339;2 place de l'hôpital, lyon, france;l'hôpital;4.836;45.759;place de l'hôpital, france;l'hôpital, marcenod, france;l'hôpital, taluyers, france;l'hôpital, chazey-sur-ain, france;l'hôpital, saint-cyr-de-favières, france
338;30 avenue du maréchal de lattre de tassigny, pessac, france;tassigny;-0.694;44.78;cours du maréchal de lattre de tassigny, léognan, france;avenue maréchal de lattre de tassigny, villenave-d'ornon, france;cours du mal de lattre tassigny, langon, france;rue jean de lattre de tassigny, panazol, france;avenue jean de lattre de tassigny, cannes, france
337;108 avenue de nice, cagnes-sur-mer, france;de nice;7.177;43.661;avenue de nice, cagnes-sur-mer, france;chemin de nice, saint-paul-de-vence, france;route de nice, antibes, france;avenue de nice, antibes, france;route de nice, colomars, france
336;2 rue des trois bornes, paris, france;bornes;2.372;48.866;cité des trois bornes, paris, france;impasse des hautes bornes, ivry-sur-seine, france;rue des hautes bornes, orly, france;rue des bornes, ermont, france;chemin des hautes bornes, franconville, france
335;22 avenue puvis de chavannes, courbevoie, france;chavannes;2.234;48.899;avenue puvis de chavannes, courbevoie, france;rue puvis de chavannes, france;allée de chavannes, gagny, france;rue des chavannes, villette, france;chemin de chavannes, vert, france
334;33 rue de la chapelle saint martin, haute-goulaine, france;martin;-1.43;47.191;rue saint-martin, haute-goulaine, france;martineau, dieulivol, france;martinettières, la chapelle-basse-mer, france;boulevard martin luther king, nantes, france;cité saint-martin, paris, france
333;1 rue du pontin, nice, france;pontin;7.275;43.697;rue du pontin, nice, france;ruelle du pontin, contes, france;rue du pontin, les ferres, france;rue du pontin, saint-michel-l'observatoire, france;rue du pontin, roche-la-molière, france
332;115 rue jules ferry, saint-brieuc, france;ferry;-2.77;48.5;rue jules ferry, france;rue jules ferry, quiberon, france;place jules ferry, lorient, france;avenue jules ferry, rennes, france;avenue jules ferry, le palais, france
331;37 boulevard du général leclerc, roubaix, france;leclerc;3.177;50.69;rue du général leclerc, wattrelos, france;boulevard du général leclerc, mons-en-barœul, france;cour leclercq, roubaix, france;rue du général leclerc, villeneuve-d'ascq, france;avenue du maréchal leclerc, douai, france
330;36 rue saint-georges, rennes, france;saint-georges;-1.676;48.112;rue saint-georges, rennes, france;saint-georges, ercé-prés-liffré, france;saint-georges, saint-père, france;saint-georges, gahard, france;saint-georges, chauvigné, france
329;9 rue du grand pré, lourmarin, france;grand pré;5.364;43.765;rue du grand pré, lourmarin, france;avenue du grand pré, voisins-le-bretonneux, france;rue du grand pré, fèves, france;rue du grand pré, france;
328;186 avenue charles de gaulle, neuilly-sur-seine, france;gaulle;2.258;48.886;avenue charles de gaulle, neuilly-sur-seine, france;place charles de gaulle, paris, france;avenue charles de gaulle, bois-colombes, france;esplanade du général de gaulle, puteaux, france;avenue du général de gaulle, puteaux, france
327;26 rue pierre brossolette, asnières-sur-oise, france;brossolette;2.355;49.132;rue pierre brossolette, asnières-sur-oise, france;rue pierre brossolette, levallois-perret, france;rue pierre brossolette, beaumont-sur-oise, france;rue pierre brossolette, presles, france;rue pierre brossolette, persan, france
326;domaine de massane, baillargues, france;massane;4.005;43.649;domaine de massane, baillargues, france;parc d'activités de massane, baillargues, france;boulevard de massane, baillargues, france;massane, saint-félix-de-pallières, france;rue massane, montpellier, france
324;34 place aux huiles, marseille, france;huiles;5.372;43.292;place aux huiles, marseille, france;place aux huiles - mairie, marseille, france;les huiles, saint-sauvier, france;rue des huiles, thiviers, france;les huiles, préveranges, france
325;13 rue de la fontaine de chalet, massiac, france;chalet;3.201;45.274;chalet, massiac, france;chalet saint louis, saint-martin-de-belleville, france;chalet d'orgeval, la chapelle-du-bard, france;le chalet du mont lozère, cubières, france;chalet josserand, besse, france
322;15 rue letort, paris, france;letort;2.343;48.894;rue letort, france;impasse letort, paris, france;rue letort, drancy, france;rue louis letort, saint-aignan-sur-roë, france;
323;4 rue saint-laurent, paris, france;saint-laurent;2.359;48.876;rue saint-laurent, paris, france;rue saint-laurent, lagny-sur-marne, france;saint-laurent, brueil-en-vexin, france;belle rue saint-laurent, orléans, france;rue du puits saint-laurent, orléans, france
320;33 avenue de la mouscane, montech, france;mouscane;1.241;43.963;rue de la mouscane, montech, france;avenue de la mouscane, montech, france;;;
321;66 rue grande, moret-sur-loing, france;grande;2.818;48.373;grande rue charles de gaulle, nogent-sur-marne, france;grande rue, sèvres, france;grande rue, moret-loing-et-orvanne, france;grande rue, vernou-la-celle-sur-seine, france;grande rue, villemomble, france
319;13 rue louison bobet, biarritz, france;bobet;-1.554;43.488;allée louison bobet, villenave-d'ornon, france;rue louison bobet, le mans, france;allée louison bobet, levallois-perret, france;rue louison bobet, aulnay-sous-bois, france;rue louis bobet, vaux-sur-mer, france
318;allée jacques duclos, boulazac, france;duclos;0.777;45.185;allée jacques duclos, boulazac, france;duclos, sainte-livrade-sur-lot, france;duclos, baliracq-maumusson, france;chemin de duclos, sainte-livrade-sur-lot, france;rue jacques duclos, rilhac-rancon, france
317;16 rue des archives, paris, france;archives;2.355;48.858;rue des archives, paris, france;rue des archives, créteil, france;rue des archives, houilles, france;sentier des archives, rueil-malmaison, france;rue des archives, fontainebleau, france
316;2 rue fénelon, tournus, france;fénelon;4.909;46.565;rue fénelon, tournus, france;fénelon, tresses, france;rue fénelon, lyon, france;place fénelon, bourg-en-bresse, france;rue fénelon, dijon, france
315;59 rue servan, paris, france;servan;2.381;48.864;rue servan, paris, france;square servan, france;rue servandoni, paris, france;servanne, mouriès, france;avenue lucien servanty, blagnac, france
314;119-121 avenue pierre brossolette, montrouge, france;brossolette;2.307;48.817;avenue pierre brossolette, malakoff, france;rue pierre brossolette, châtillon, france;rue pierre brossolette, paris, france;rue pierre brossolette, levallois-perret, france;avenue pierre brossolette, le plessis-robinson, france
313;46 rue des vignoles, paris, france;vignoles;2.401;48.854;rue des vignoles, paris, france;impasse des vignoles, france;vignoles, proupiary, france;vignoles, beaumont-sur-lèze, france;vignoles, montfa, france
312;place granet, belgentier, france;granet;6;43.245;rue granet, sanary-sur-mer, france;impasse granet, sanary-sur-mer, france;allée de la granette, ceyreste, france;chemin de la granette, ceyreste, france;rue granet, marseille, france
311;355 rue du centre aéré, saint-paul-lès-dax, france;centre aéré;-1.063;43.729;rue du centre aéré, saint-paul-lès-dax, france;rue du centre aéré, albi, france;chemin du centre aéré, décines-charpieu, france;rue du centre aéré, capdenac-gare, france;chemin du centre aéré, vénéjan, france
310;1 bis rue des colonels renard, paris, france;renard;2.291;48.878;rue du renard, paris, france;rue de la renardière, noisy-le-sec, france;impasse de la renardière, bagneux, france;sentier des renards, fontenay-aux-roses, france;rue du renard, la garenne-colombes, france
309;23 rue d'aguesseau, boulogne-billancourt, france;d'aguesseau;2.236;48.844;rue d'aguesseau, boulogne-billancourt, france;rue d'aguesseau, paris, france;rue d'aguesseau, cognac, france;impasse d'aguesseau, cognac, france;rue d'aguesseau, ormesson-sur-marne, france
308;97 rue de charonne, paris, france;charonne;2.383;48.854;rue de charonne, paris, france;boulevard de charonne, paris, france;la charonnerie, évry-grégy-sur-yerre, france;rue des charonnes, malay-le-grand, france;la charonnerie, bonneval, france
307;5 rue de la paix, paris, france;la paix;2.331;48.869;rue de la paix, paris, france;boulevard de la paix, courbevoie, france;rue de la paix, bois-colombes, france;avenue de la paix - clarissa jean-philippe, montrouge, france;rue de la paix, gentilly, france
306;maison neuve vouzan, 16410 vouzan, france;vouzan;0.344;45.582;route de vouzan, sers, france;la vouzance, loddes, france;les vouzances, saint-léger-sur-vouzance, france;;
305;83 rue laugier, paris, france;laugier;2.291;48.885;rue laugier, paris, france;villa laugier, paris, france;rue laugier, argenteuil, france;rue laugier villars, gagny, france;route laugier, montfort-l'amaury, france
304;25 montée cardinal decourtray, lyon, france;decourtray;4.822;45.762;;;;;
303;261 avenue gambetta, paris, france;gambetta;2.407;48.877;passage gambetta, paris, france;place gambetta, france;avenue gambetta, paris, france;allées léon gambetta, clichy, france;avenue gambetta, bagnolet, france
302;6 rue du port, giffaumont-champaubert, france;du port;4.759;48.552;rue du port, giffaumont-champaubert, france;rue du port de nuisement, sainte-marie-du-lac-nuisement, france;rue du port sec, wassy, france;rue du port, wassy, france;rue du port de gigny, saint-dizier, france
301;3 rue montalembert, paris, france;montalembert;2.328;48.857;rue montalembert, paris, france;avenue de montalembert, aulnay-sous-bois, france;boulevard comté de montalembert, villeneuve-d'ascq, france;rue charles de montalembert, cholet, france;rue montalembert, clermont-ferrand, france
300;5 rue michelet, dijon, france;michelet;5.036;47.321;rue michelet, dijon, france;rue jules michelet, rillieux-la-pape, france;rue jules michelet, oyonnax, france;michelet, yzeure, france;place jules michelet, rillieux-la-pape, france
299;28 quai saint-jean, blois, france;saint-jean;1.341;47.589;ruelle court gain saint-jean, blois, france;impasse saint-jean, blois, france;quai saint-jean, blois, france;ruelle saint-jean, blois, france;saint-jean du grais, azay-sur-cher, france
297;129 rue lauriston, paris, france;lauriston;2.285;48.865;rue lauriston, paris, france;chemin lauriston, paris, france;rue lauriston, grigny, france;;
298;1 rue du petit pont, paris, france;petit pont;2.347;48.853;petit pont - cardinal lustiger, paris, france;petit pont, petit pont - cardinal lustiger, paris, france;rue du petit pont, paris, france;place du petit-pont, paris, france;rue petit, paris, france
296;5 avenue de saint-germain, maisons-laffitte, france;saint-germain;2.143;48.945;avenue de saint-germain, maisons-laffitte, france;boulevard saint-germain, paris, france;place saint-germain des prés, paris, france;rue saint-germain l'auxerrois, paris, france;route de saint-germain, montesson, france
295;place paul isnard, vallauris, france;isnard;7.053;43.58;escalier maximin isnard, grasse, france;rue léon isnard, saint-raphaël, france;avenue pierre isnard, nice, france;rue des isnardons, mougins, france;place du lieutenant isnard, mougins, france
294;9 place du général leclerc, fontenay-sous-bois, france;leclerc;2.472;48.847;place du général leclerc, fontenay-sous-bois, france;rue du général leclerc, villiers-sur-marne, france;avenue du général leclerc, paris, france;place du général leclerc, le pré-saint-gervais, france;place du général leclerc, nogent-sur-marne, france
293;32 cours de la république, blaye, france;république;-0.661;45.13;avenue de la république, bordeaux, france;place de la république, saint-médard-en-jalles, france;place de la république, bordeaux, france;place de la république, nantes, france;avenue de la république, braud-et-saint-louis, france
291;4 rue des vanniers, douzy, france;vanniers;5.043;49.67;rue des vanniers, douzy, france;rue des vanniers, givry, france;rue des vanniers, sainte-marie, france;rue des vanniers, le thour, france;allée des vanniers, jâlons, france
292;14 rue d'alexandrie, paris, france;d'alexandrie;2.35;48.868;rue d'alexandrie, paris, france;allée d'alexandrie, champs-sur-marne, france;ruelle d'alexandrie, dourdan, france;rue d' alexandrie, angoulême, france;rue d'alexandrie, tourcoing, france
289;22 place du forum, reims, france;forum;4.035;49.257;place du forum, reims, france;forum de coignières, coignières, france;forum haut, boulogne-billancourt, france;forum de la gare, fougères, france;allée du forum, boulogne-billancourt, france
290;215 avenue de la californie, nice, france;californie;7.23;43.68;avenue de la californie, nice, france;parc de la californie, nice, france;petite avenue de la californie, nice, france;chemin de la californie, vallauris, france;avenue de la californie, cannes, france
287;101 rue de colombes, courbevoie, france;colombes;2.255;48.904;rue de colombes, courbevoie, france;pont de colombes, colombes, france;rue de colombes, asnières-sur-seine, france;avenue de colombes, asnières-sur-seine, france;rue des colombes, saint-germain-en-laye, france
288;25 rue bergère, paris, france;bergère;2.345;48.872;rue bergère, paris, france;cité bergère, paris, france;rond-point des bergères, puteaux, france;rue de la bergère, bobigny, france;rue de la bergère, l'haÿ-les-roses, france
286;58 avenue des gobelins, paris, france;gobelins;2.354;48.834;avenue des gobelins, paris, france;rue des gobelins, paris, france;villa des gobelins, paris, france;rue des gobelins, argenteuil, france;sentier des gobelins, villiers-le-bel, france
285;10 cours julien, marseille, france;julien;5.382;43.296;cours julien, marseille, france;avenue julien olive, martigues, france;résidence saint-julien, marseille, france;avenue de saint-julien, marseille, france;chemin de saint-julien, marseille, france
284;6 place garibaldi, nice, france;garibaldi;7.28;43.701;place garibaldi, nice, france;traverse garibaldi, nice, france;rue garibaldi, lyon, france;rue garibaldi, gorbio, france;boulevard garibaldi, marseille, france
283;6 place de la libération, génicourt, france;libération;2.068;49.089;place de la libération, génicourt, france;rue de la libération, livilliers, france;boulevard de la libération, osny, france;place de la libération, maisons-laffitte, france;rue de la libération, courcelles-sur-viosne, france
282;66 avenue du général leclerc, villemur-sur-tarn, france;leclerc;1.497;43.852;avenue du gén leclerc, villemur-sur-tarn, france;boulevard maréchal leclerc, toulouse, france;avenue du général leclerc, agen, france;rue maréchal leclerc, saint-astier, france;avenue du général leclerc, nîmes, france
280;34 rue d'estienne d'orves, le pré-saint-gervais, france;d'orves;2.401;48.886;;;;;
281;159 rue de crimée, paris, france;crimée;2.379;48.889;rue de crimée, paris, france;passage de crimée, paris, france;avenue de crimée, paris, france;rue de crimée, houilles, france;passage de crimée, houilles, france
279;3 boulevard victor, paris, france;victor;2.28;48.836;boulevard victor, france;villa victor hugo, paris, france;avenue victor hugo, paris, france;place victor hugo, paris, france;rue victor hugo, issy-les-moulineaux, france
278;rue des lices, angers, france;lices;-0.554;47.469;rue des lices, angers, france;lices georges pompidou, albi, france;place des lices, rennes, france;lices jean moulin, albi, france;rue des lices, laval, france
277;118 rue des moines, paris, france;moines;2.323;48.893;rue des moines, paris, france;chemin des moines de l'étang, rueil-malmaison, france;rue des moines saint-martin, bry-sur-marne, france;rue des moines, versailles, france;chemin des moines, marly-le-roi, france
276;8 rue gioffredo, nice, france;gioffredo;7.276;43.702;rue gioffredo, nice, france;passage gioffredo, nice, france;;;
275;48 rue caulaincourt, paris, france;caulaincourt;2.335;48.889;rue caulaincourt, paris, france;square caulaincourt, paris, france;rampe caulaincourt, paris, france;rue jean de caulaincourt, saint-quentin, france;rue à de caulaincourt, roisel, france
274;97 rue des dames, paris, france;dames;2.317;48.884;rue des dames, paris, france;rue des dames augustines, neuilly-sur-seine, france;rue damesme, paris, france;impasse damesme, paris, france;allée des dames, paris, france
273;20 rue du doyen, boulogne-sur-mer, france;doyen;1.607;50.723;rue du doyen, boulogne-sur-mer, france;rue du doyen, fruges, france;rue du colonel doyen, saint-omer, france;rue du doyen, aire-sur-la-lys, france;boulevard du doyenné, angers, france
272;26 place de l'horloge, avignon, france;l'horloge;4.806;43.95;place de l'horloge, avignon, france;rue de l'horloge, perpignan, france;l'horloge, le bourget-du-lac, france;place de l'horloge, marseille, france;rue de l'horloge, marseille, france
271;4 rue de la gare, guebwiller, france;la gare;7.216;47.907;rue de la gare, guebwiller, france;place de la gare, colmar, france;la gare, romanèche-thorins, france;la gare, l'argentière-la-bessée, france;la gare d'heyrieux, saint-pierre-de-chandieu, france
270;5 route de la corniche, rolleboise, france;corniche;1.61;49.023;route de la corniche, rolleboise, france;corniche président john fitzgerald kennedy, marseille, france;corniche du bois barbet, canteleu, france;corniche de la plage, bénodet, france;corniche fleurie, nice, france
269;200 route de blagnac, toulouse, france;blagnac;1.403;43.626;pont de blagnac, toulouse, france;rue du vieux blagnac, blagnac, france;route de blagnac, toulouse, france;vieux chemin de blagnac, cornebarrieu, france;blagnac, cabara, france
268;2 rue françois mouthon, paris, france;mouthon;2.291;48.839;rue françois mouthon, paris, france;rue françois mouthon, chilly-mazarin, france;;;
267;45 avenue de la libération, le coteau, france;libération;4.084;46.03;avenue de la libération, le coteau, france;allée de la libération, riorges, france;rue de la libération, briennon, france;avenue de la libération, saint-étienne, france;place de la libération, cours-la-ville, france
266;46 rue jules simon, lorient, france;simon;-3.367;47.758;rue simone signoret, lorient, france;place simone de beauvoir, lorient, france;impasse simon ratier, lorient, france;rue simone de beauvoir, lanester, france;rue simone le carrer, lanester, france
265;16 rue de la buffa, nice, france;buffa;7.262;43.697;rue de la buffa, nice, france;buffalo grill, chalon-sur-saône, france;buffat, pinols, france;le buffarel, mostuéjouls, france;buffan, quins, france
264;paris, null paris;paris;2.307;48.866;avenue des champs-élysées, paris, france;avenue montaigne, paris, france;rue saint-dominique, paris, france;rue du faubourg saint-honoré, paris, france;avenue de paris, paray-vieille-poste, france
263;192 avenue victor-hugo, paris, france;victor-hugo;2.274;48.865;villa victor hugo, paris, france;avenue victor hugo, paris, france;place victor hugo, paris, france;avenue victor hugo, cachan, france;rue victor hugo, levallois-perret, france
262;49 rue de turenne, paris, france;turenne;2.364;48.858;rue de turenne, paris, france;place de turenne, créteil, france;allée de turenne, aulnay-sous-bois, france;rue de turenne, longjumeau, france;avenue du maréchal de turenne, villeneuve-le-roi, france
261;119 route de vienne, lyon, france;vienne;4.853;45.737;route de vienne, lyon, france;vienne, cublize, france;route de vienne, chasse-sur-rhône, france;viennette, montret, france;route de vienne, charvieu-chavagneux, france
260;4-6 place emile cresp, montrouge, france;cresp;2.319;48.819;place emile cresp, montrouge, france;rue crespin du gast, paris, france;rue crespin, le perreux-sur-marne, france;rue adolphe crespin, orléans, france;allée de crespy, vaux-le-pénil, france
259;70 avenue du bourgailh, pessac, france;bourgailh;-0.663;44.809;bourgailh, pessac, france;avenue du bourgailh, pessac, france;;;
258;131 boulevard victor hugo, saint-ouen, france;victor hugo;2.323;48.905;boulevard victor hugo, clichy, france;place victor hugo, paris, france;avenue victor hugo, paris, france;villa victor hugo, paris, france;rue victor hugo, levallois-perret, france
257;15 rue corneille, toulon, france;corneille;5.934;43.124;rue corneille, toulon, france;impasse pierre corneille, la garde, france;rue corneille, la crau, france;impasse corneille, bandol, france;rue corneille, marseille, france
256;9 boulevard de port-royal, paris, france;port-royal;2.35;48.837;boulevard de port-royal, paris, france;square de port-royal, paris, france;cité de port-royal, paris, france;allée du port royal, montreuil, france;route de port royal, montigny-le-bretonneux, france
255;9 avenue emile evellier, grézieu-la-varenne, france;evellier;4.693;45.748;avenue emile evellier, grézieu-la-varenne, france;;;;
254;58 rue franklin, lyon, france;franklin;4.832;45.751;rue franklin, lyon, france;avenue franklin roosevelt, vaulx-en-velin, france;avenue franklin roosevelt, bron, france;cours franklin-roosevelt, lyon, france;avenue franklin roosevelt, écully, france
253;quartier la robéyère, embrun, france;robéyère;6.488;44.56;la robèyere, embrun, france;rue de la robèyere, embrun, france;;;
252;z.a. du roubian, tarascon, france;roubian;4.685;43.79;chemin de roubian, cabrières-d'aigues, france;;;;
251;1 rue villedo, paris, france;villedo;2.337;48.866;rue villedo, paris, france;villedondet, saint-groux, france;villedon, subligny, france;villedonne, neuvy-deux-clochers, france;villedoumy, saint-désiré, france
250;46 rue des hauts pavés, nantes, france;pavés;-1.565;47.225;rue des hauts pavés, nantes, france;rue des hauts pavés, ancenis, france;les pavés, la gravelle, france;les pavés, saint-mars-sous-ballon, france;les pavés, tour-en-sologne, france
249;10 rue marius jacotot, puteaux, france;jacotot;2.24;48.883;rue marius jacotot, puteaux, france;rue jacotot, aix-les-bains, france;rue jacotot, dijon, france;rue jean jacotot, saint-nazaire, france;
248;32 avenue des carrés, annecy-le-vieux, france;carrés;6.143;45.913;avenue des carrés, france;chemin des carrés, doussard, france;résidence les carrés d'amalys, jonzier-épagny, france;impasse des carrés, cornier, france;impasse des carrés, chindrieux, france
247;41 quai pierre scize, lyon, france;scize;4.816;45.767;quai de pierre-scize, lyon, france;;;;
246;7 rue mathieu, mâcon, france;mathieu;4.83;46.306;rue mathieu, mâcon, france;rue mathieu varille, lyon, france;mathieu, padirac, france;rue du puits mathieu, thoiry, france;place du puits mathieu, thoiry, france
245;146 avenue de la division leclerc, montmorency, france;leclerc;2.31;48.973;rue du général leclerc, franconville, france;rue du général leclerc, bois-colombes, france;avenue du général leclerc, saint-prix, france;rue du général leclerc, saint-leu-la-forêt, france;avenue de la division leclerc, enghien-les-bains, france
244;1 place turenne, turckheim, france;turenne;7.278;48.087;place turenne, turckheim, france;cité turenne, turckheim, france;rue turenne, colmar, france;rue de turenne, paris, france;rue turenne, strasbourg, france
243;499 rue saint-bernard, menthon-saint-bernard, france;saint-bernard;6.197;45.859;rue saint-bernard, menthon-saint-bernard, france;saint-bernard, dijon, france;route du petit saint-bernard, séez, france;boulevard saint-bernard de menthon, annecy, france;impasse saint-bernard-de-menthon, annecy, france
242;7 rue des paradoux, toulouse, france;paradoux;1.443;43.598;rue des paradoux, toulouse, france;;;;
241;3 place pierre renaudel quartier saint croix, bordeaux, france;croix;-0.562;44.831;quai sainte-croix, bordeaux, france;rue de la croix-de-seguey, bordeaux, france;croix d'hins, marcheprime, france;rue de la croix blanche, bordeaux, france;croix du lignan, saint-médard-en-jalles, france
240;2 passage malaussena, nice, france;malaussena;7.263;43.708;avenue malaussena, nice, france;passage malaussena, nice, france;boulevard michel malausséna, saint-martin-du-var, france;avenue françois malaussena, levens, france;
239;5 rue gioffredo, nice, france;gioffredo;7.277;43.702;rue gioffredo, nice, france;passage gioffredo, nice, france;;;
238;3 boulevard de la madeleine, paris, france;madeleine;2.327;48.87;galerie de la madeleine, paris, france;marché de la madeleine, paris, france;place de la madeleine, paris, france;boulevard de la madeleine, paris, france;passage de la madeleine, france
237;route nationale 13, chambourcy, france;nationale 13;2.034;48.908;13 rue nationale, paris, france;13 rue nationale, cergy, france;13 place nationale, sartrouville, france;13 rue nationale, mézières-sur-seine, france;13 rue nationale, la queue-lez-yvelines, france
236;28 rue du château, le monêtier-les-bains, france;château;6.508;44.977;château d'annecy, impasse du trippoz, annecy, france;rue du château, le monêtier-les-bains, france;château de pupetières, châbons, france;château de la gabelle, ferrassières, france;châteauneuf lès moustiers (village en ruines), la palud-sur-verdon, france
235;14 avenue claude vellefaux, paris, france;vellefaux;2.37;48.873;avenue claude vellefaux, paris, france;rue de vellefaux, vallerois-lorioz, france;voie de vellefaux, la demie, france;;
234;3 rue du marais, villers-saint-paul, france;marais;-1.619;48.113;passage des marais, paris, france;chemin des marais, vern-sur-seiche, france;marais de fresne, nampont, france;allée jean marais, chantepie, france;avenue des marais, acigné, france
233;6 place sainte marie, rully, france;marie;4.74;46.875;promenade sainte-marie, chalon-sur-saône, france;rempart sainte marie, chalon-sur-saône, france;place sainte-marie, chalon-sur-saône, france;quai sainte-marie, chalon-sur-saône, france;rue marie noël, beaune, france
232;16 avenue de l'opéra, paris, france;l'opéra;2.335;48.865;avenue de l'opéra, paris, france;place de l'opéra, france;l'opéra garnier, rue scribe, paris, france;square de l'opéra-louis jouvet, france;rue de l'opéra, massy, france
231;94 rue du général de gaulle, village-neuf, france;gaulle;7.571;47.605;cours général de gaulle, dijon, france;place charles de gaulle, paris, france;avenue charles de gaulle, roissy-en-france, france;place charles de gaulle, vichy, france;avenue charles de gaulle, neuilly-sur-seine, france
230;17 rue des petits-champs, paris, france;petits-champs;2.338;48.866;rue des petits champs, paris, france;rue croix des petits champs, paris, france;chemin des petits champs, carrières-sur-seine, france;rue des petits champs, montesson, france;rue des petits champs, sartrouville, france
229;18 rue des combattants, la ciotat, france;combattants;5.608;43.174;rue des combattants, la ciotat, france;rue des combattants d'afrique du nord, fréjus, france;avenue des combattants en afrique du nord, marignane, france;rue des combattants d'extrême-orient, marignane, france;allée des combattants d'indochine, riez, france
228;51 avenue du dr arnold netter, paris, france;netter;2.405;48.844;avenue du docteur arnold netter, paris, france;rue jacobi-netter, strasbourg, france;la netterie, tollevast, france;rue netter, rosheim, france;rue du docteur netter, strasbourg, france
227;105 avenue des célestins, vichy, france;célestins;3.43;46.126;avenue des célestins, vichy, france;quai des célestins, lyon, france;place des célestins, lyon, france;quai des célestins, paris, france;impasse des célestins, oullins, france
226;9 chemin canto cigalo, saint-rémy-de-provence, france;cigalo;4.841;43.785;impasse des cigalons, saint-étienne-du-grès, france;lou cigaloun, tarascon, france;chemin des cigalons, nîmes, france;impasse li cigaloun, saint-saturnin-lès-avignon, france;chemin du cigalon, arles, france
225;115 avenue de la division leclerc, enghien-les-bains, france;leclerc;2.31;48.973;rue du général leclerc, franconville, france;rue du général leclerc, bois-colombes, france;avenue du général leclerc, saint-prix, france;rue du général leclerc, saint-leu-la-forêt, france;avenue de la division leclerc, enghien-les-bains, france
224;11 passage central, mulhouse, france;central;7.341;47.748;passage central, mulhouse, france;centrale nucléaire, nogent-sur-seine, france;centrale de la coche, aigueblanche, france;barrage hydro-électrique de gambsheim, gambsheim, france;central plaza, chessy, france
223;74 rue de france, nice, france;france;7.255;43.695;rue de france, nice, france;avenue anatole france, nice, france;allée privée rose de france, nice, france;rue anatole france, cagnes-sur-mer, france;impasse anatole france, cagnes-sur-mer, france
222;9 rue denoyez, paris, france;denoyez;2.378;48.871;rue denoyez, paris, france;;;;
221;96 route du polygone, strasbourg, france;polygone;7.759;48.566;route du polygone, strasbourg, france;polygone riviera, cagnes-sur-mer, france;rond-point du polygone, rochefort, france;rue du polygone, fontaine, france;rue du polygone, héricourt, france
220;36 boulevard de la gare, saint-gratien, france;la gare;2.285;48.964;boulevard de la gare, saint-gratien, france;place de la gare, saint-gratien, france;la garenne de melleville, guichainville, france;quai de la gare, paris, france;rue de la gare, ermont, france
219;9 quai du lazaret, marseille, france;lazaret;5.365;43.306;quai du lazaret, marseille, france;parc du lazaret, saint-mandrier-sur-mer, france;lazaret, urdos, france;route du lazaret, ajaccio, france;chemin du lazaret, villefranche-sur-mer, france
218;le bourg, vézac, france;bourg;1.164;44.836;bourgoin, le menoux, france;bourg st andeol, pierrelatte, france;avenue maurice bourges-maunoury, toulouse, france;bourges cathedral, place etienne dolet, bourges, france;résidence du vieux bourg, villenave-d'ornon, france
216;3 rue de l'isly, paris, france;l'isly;2.326;48.875;rue de l'isly, paris, france;rue de l'isly, carrières-sur-seine, france;;;
217;5 rue guy de maupassant, yvetot, france;maupassant;0.753;49.618;quai guy de maupassant, fécamp, france;rue guy de maupassant, petit-couronne, france;côte guy de maupassant, canteleu, france;rue guy de maupassant, rouen, france;allée maupassant, folleville, france
215;9 avenue du drapeau, dijon, france;drapeau;5.044;47.331;avenue du drapeau, dijon, france;rue du drapeau, arc-sur-tille, france;avenue du drapeau, cusset, france;hotel thierry drapeau, saint-sulpice-le-verdon, france;rue du drapeau, le châtelet-sur-retourne, france
214;24 rue de cotte, paris, france;cotte;2.378;48.85;rue de cotte, paris, france;cottentray, avesnes-en-bray, france;rue cottereau, noisy-le-sec, france;cottereau, villemoutiers, france;boulevard cotte, enghien-les-bains, france
213;3 boulevard du maréchal de lattre de tassigny, saumur, france;tassigny;-0.089;47.262;rond-point du marechal de lattre de tassigny, chambray-lès-tours, france;parc de lattre de tassigny, courbevoie, france;passage maréchal delattre de tassigny, rennes, france;rue maréchal jean-marie de lattre de tassigny, alençon, france;avenue du maréchal de lattre de tassigny, les lilas, france
212;1 avenue édouard vii, pau, france;édouard vii;-0.359;43.297;avenue edouard vii, pau, france;édouard vii square, france;avenue edouard vii, biarritz, france;rue edouard vii, montpellier, france;rue édouard vii, france
211;lieu dit 'les terres rouges', dizy, france;rouges';3.962;49.067;rond-point des rouges terres, bois-guillaume, france;rouges terres, clermont-en-argonne, france;rue des rouges-gorges, châlons-en-champagne, france;rue des rouges-terres, pomacle, france;les rouges terres, bazancourt, france
210;41 rue dauphine, paris, france;dauphine;2.339;48.854;place dauphine, paris, france;rue dauphine, paris, france;passage dauphine, paris, france;route dauphiné, paris, france;impasse dauphiné, saint-ouen, france
209;31 avenue jean bart, carry-le-rouet, france;jean bart;5.172;43.334;impasse jean bart, carry-le-rouet, france;avenue jean bart, carry-le-rouet, france;avenue jean bart, marignane, france;rue jean bart, port-de-bouc, france;avenue jean bartolini, la seyne-sur-mer, france
208;20 avenue de la fossé des pressoirs, magny-le-hongre, france;pressoirs;2.807;48.871;allée des pressoirs, pomponne, france;allée des pressoirs, montesson, france;ruelle des pressoirs, leuville-sur-orge, france;rue des pressoirs, montereau-fault-yonne, france;sentier des pressoirs, ennery, france
207;2 rue saint-michel, nancy, france;saint-michel;6.179;48.697;rue saint-michel, nancy, france;avenue saint-michel, malzéville, france;place saint-michel, paris, france;boulevard saint-michel, paris, france;fort saint michel, toul, france
206;6 rue victor hugo, pantin, france;victor hugo;2.402;48.895;rue victor hugo, pantin, france;résidence victor hugo, pantin, france;place victor hugo, paris, france;avenue victor hugo, paris, france;villa victor hugo, paris, france
205;1 plage de l'estaque, marseille, france;l'estaque;5.317;43.36;l'estaque, le barcarès, france;lotissement de l'estaque bleue, marseille, france;chemin de l'estaque, poussan, france;rue de l'estaque, poussan, france;allée de l'estaque, colomiers, france
204;104 rue de charonne, paris, france;charonne;2.385;48.854;rue de charonne, paris, france;boulevard de charonne, paris, france;la charonnerie, évry-grégy-sur-yerre, france;rue des charonnes, malay-le-grand, france;la charonnerie, bonneval, france
203;68 bis avenue jean moulin, paris, france;moulin;2.32;48.825;rue du moulin vert, paris, france;moulin de sannois, sannois, france;impasse du moulin vert, paris, france;rue du moulin de la vierge, paris, france;moulin des bassins, villejuif, france
202;78 rue rue haute saint maurice, chinon, france;maurice;0.24;47.167;place saint-maurice, thizay, france;impasse saint-maurice, thizay, france;avenue maurice ravel, paris, france;rue saint-maurice, candes-saint-martin, france;rue maurice lemesle, benais, france
201;rue de l'ouest, le cannet, france;l'ouest;7.013;43.573;avenue de l'ouest lyonnais, messimy, france;rue de l'ouest, le cannet, france;rue de l'ouest, paris, france;boulevard de l'ouest, rouen, france;l'ouest, étival-lès-le-mans, france
200;99 rue de la pompe, paris, france;pompe;2.278;48.865;rue de la pompe, paris, france;impasse de la pompelle, arnouville, france;rue de la pompe, saint-maurice, france;rue de la pompe, chevilly-larue, france;allée de la pompe, les pavillons-sous-bois, france
198;8 rue du plan d'agde, montpellier, france;d'agde;3.876;43.608;route d'agde, toulouse, france;avenue d'agde, pomérols, france;route d'agde, marseillan, france;avenue d'agde, nézignan-l'évêque, france;avenue d'agde, saint-thibéry, france
199;21 rue de l'horloge, riom, france;l'horloge;3.114;45.895;rue de l'horloge, auxerre, france;l'horloge, le bourget-du-lac, france;place de l'horloge, avignon, france;quai de l'horloge, paris, france;rue de l'horloge, perpignan, france
197;85 rue saint antoine, paris, france;antoine;2.363;48.854;rue saint-antoine, paris, france;passage saint-antoine, paris, france;rue du faubourg saint-antoine, paris, france;passage antoine carême, france;rue antoine-julien hénard, paris, france
196;31 avenue george v, paris, france;george v;2.3;48.869;avenue george v, paris, france;rue george v, eaubonne, france;boulevard george v, nogent-sur-marne, france;rue george v, maisons-laffitte, france;rue george bernard shaw, paris, france
195;93 rue de la victoire, paris, france;victoire;2.331;48.875;rue de la victoire, paris, france;place des victoires, paris, france;place de la victoire, bordeaux, france;place des victoires, asnières-sur-seine, france;allée de la victoire, gennevilliers, france
194;quai la pérouse, saint-laurent-du-var, france;pérouse;7.183;43.657;quai la pérouse, saint-laurent-du-var, france;pérouse, saint-alban-auriolles, france;rue des perouses, rumilly, france;avenue de pérouse, aix-en-provence, france;pérouse, eyzin-pinet, france
193;16 rue de tolbiac, paris, france;tolbiac;2.375;48.83;rue de tolbiac, paris, france;villa tolbiac, paris, france;port de tolbiac, france;pont de tolbiac, paris, france;allée de tolbiac, gagny, france
192;rue intérieure, paris, france;intérieure;2.326;48.876;rue intérieure, paris, france;rue intérieure, coulommiers, france;rue intérieure, arandon, france;rue intérieure, saint-jean-le-centenier, france;place intérieure de l'église, blagnac, france
191;45 rue saint-charles, toulouse, france;saint-charles;1.442;43.61;rue saint-charles, toulouse, france;saint-charles, perpignan, france;saint-charles, damiatte, france;escalier gare saint-charles, marseille, france;rue saint-charles, castelginest, france
190;37 rue malar, paris, france;malar;2.306;48.86;rue malar, paris, france;rue malard fauquet, bry-sur-marne, france;ruelle malard, chambourcy, france;rue françois malard, paray-vieille-poste, france;square sud malarme, gouvieux, france
189;22 rue de ribosi domaine des duc, léguevin, france;des duc;1.257;43.603;chemin des ducs, bioule, france;rue des grands ducs, foix, france;boulevard des ducs de biron, villeréal, france;promenade des ducs, lauzun, france;allée des grands ducs, bergerac, france
188;22 rue pairolière, nice, france;pairolière;7.279;43.7;rue pairolière, nice, france;ruelle pairolière, nice, france;;;
187;11 faubourg saint-michel, guérande, france;saint-michel;-2.426;47.327;faubourg saint michel, guérande, france;rue saint-michel, guérande, france;passage saint-michel, guérande, france;ruelle saint-michel, guérande, france;rue saint-michel, piriac-sur-mer, france
186;16 rue sedaine, paris, france;sedaine;2.372;48.856;rue sedaine, paris, france;rue sedaine, drancy, france;allée michel jean sedaine, saint-prix, france;;
185;49 cours marc-antoine brillier, vienne, france;brillier;4.873;45.522;cours brillier, vienne, france;la brillière, sambin, france;la brillière, cloué, france;;
184;7 allée des marettes, bourgoin-jallieu, france;marettes;5.278;45.585;rue des marettes, bourgoin-jallieu, france;allée des marettes, bourgoin-jallieu, france;les marettes, la roche-de-glun, france;les marettes, mercurol, france;quai des marettes, la roche-de-glun, france
183;17 place de l hôtel de ville, tournus, france;ville;4.912;46.562;villemouze, paray-sous-briailles, france;villeveny, saint-vincent-en-bresse, france;villeneuve, yssingeaux, france;villermin, saint-usuge, france;villeneuve, étrigny, france
182;place auguste baret, châteauneuf-le-rouge, france;baret;5.567;43.489;place félix baret, marseille, france;chemin du barret, châteaurenard, france;montée barret, allauch, france;barret, simiane-la-rotonde, france;traverse baret, aix-en-provence, france
181;11b rue massenet, nice, france;massenet;7.264;43.696;rue massenet, nice, france;avenue massenet, cagnes-sur-mer, france;boulevard massenet, marseille, france;avenue massenet, fréjus, france;impasse massenet, fréjus, france
180;le guiben, camors, france;guiben;-3.01;47.8;guiben, pluvigner, france;le guiben, camors, france;;;
179;2 place saint germain, sully-sur-loire, france;germain;2.368;47.767;rue du faubourg saint-germain, sully-sur-loire, france;place saint-germain, sully-sur-loire, france;germaine tillion, nantes, france;cité germain pilon, paris, france;germaine tillion, rezé, france
178;9 avenue du général de gaulle, vélizy-villacoublay, france;gaulle;2.184;48.785;avenue du général de gaulle, vélizy-villacoublay, france;place charles de gaulle, paris, france;avenue charles de gaulle, neuilly-sur-seine, france;place du général de gaulle, viroflay, france;avenue du général de gaulle, versailles, france
177;45/47 rue albert rémy, ris-orangis, france;albert rémy;2.408;48.657;rue albert rémy, ris-orangis, france;rue albert rémy, senonches, france;rue albert rémy, parpeville, france;rue albert rémy, plombières-lès-dijon, france;rue docteur albert rémy, dijon, france
176;2a route de lyon, brignais, france;de lyon;4.771;45.678;route de lyon, brignais, france;route de lyon, vernaison, france;route de lyon, montagny, france;route de lyon, feyzin, france;route de lyon, givors, france
175;27 rue richer, paris, france;richer;2.345;48.874;rue richer, france;avenue richerand, paris, france;passerelle richerand, paris, france;richer, argenvilliers, france;allée du richer, attainville, france
174;le jarier d'ancenis - d723, ancenis, france;- d723;-1.141;47.378;d723, oudon, france;d723, frossay, france;d723, résenlieu, france;d723, pithiviers-le-vieil, france;d723, venaco, france
173;45 espl. du maréchal leclerc, ardres, france;leclerc;1.978;50.853;esplanade du maréchal leclerc, ardres, france;boulevard du général leclerc, mons-en-barœul, france;rue du maréchal leclerc, hazebrouck, france;rue du général leclerc, rouen, france;rue du général leclerc, franconville, france
172;15 boulevard denys puech, rodez, france;puech;2.578;44.35;puech guilhem, olemps, france;puech moutonnier, najac, france;puech baurez, onet-le-château, france;puech camp, olemps, france;puech del pal, sébazac-concourès, france
171;10 rue des verriers, lyon, france;verriers;4.837;45.743;rue des verriers, lyon, france;côte des verriers, givors, france;rue des verriers, saint-étienne, france;rue des verriers, saint-just-saint-rambert, france;impasse des verriers, saint-romain-le-puy, france
170;113 grande rue de la guillotière, lyon, france;guillotière;4.848;45.751;grande rue de la guillotière, lyon, france;pont de la guillotière, lyon, france;chemin de la guillotière, mornant, france;impasse guillotière, vourles, france;la guillotière, pavezin, france
169;81 rue de rochechouart, paris, france;rochechouart;2.347;48.882;boulevard de rochechouart, paris, france;rue de rochechouart, paris, france;rue rochechouart, missy-sur-aisne, france;boulevard rochechouart, verneuil-sur-avre, france;avenue rochechouart, fontevraud-l'abbaye, france
168;74 quai des orfèvres, paris, france;orfèvres;2.342;48.857;quai des orfèvres, paris, france;rue des orfèvres, france;allée des orfèvres, courtry, france;rue des orfèvres, marolles-en-brie, france;rue des orfèvres, châteaufort, france
167;5 avenue villermont, nice, france;villermont;7.265;43.709;avenue villermont, nice, france;traverse villermont, nice, france;rue de villermont, nesles-la-montagne, france;;
166;85 avenue kléber, paris, france;kléber;2.289;48.864;avenue kléber, paris, france;impasse kléber, paris, france;avenue kléber, colombes, france;rue kléber, montreuil, france;rue kléber, nanterre, france
165;4 rue jacques manuel, perpignan, france;manuel;2.895;42.7;place manuel de falla, perpignan, france;carrer manuel, perpignan, france;impasse manuel de falla, saint-cyprien, france;rue manuel, narbonne, france;rue manuel de falla, carcassonne, france
164;10 allée des tullistes, écully, france;tullistes;4.779;45.775;allée des tullistes, écully, france;;;;
163;22 rue merigonde, castres, france;merigonde;2.254;43.602;rue merigonde, castres, france;;;;
162;10 route d'etrez, montrevel-en-bresse, france;d'etrez;5.13;46.336;route d'etrez, malafretaz, france;route d'etrez, cras-sur-reyssouze, france;route d'étrez, foissiat, france;route d'etrez, attignat, france;
160;avenue eugène donadeï, saint-laurent-du-var, france;donadeï;7.195;43.66;avenue eugène donadeï, saint-laurent-du-var, france;;;;
161;12 rue neuve, lyon, france;neuve;4.835;45.765;rue neuve, lyon, france;place neuve saint-jean, lyon, france;chemin du nevers, oingt, france;bois du nevert, saint-laurent-d'oingt, france;neve, ampuis, france
159;17 avenue du bel air, paris, france;bel air;2.397;48.846;villa du bel air, paris, france;avenue du bel air, paris, france;cour du bel air, paris, france;bel-air, charmentray, france;villa du bel air, saint-denis, france
158;6 boulevard du général de gaulle, draveil, france;gaulle;2.392;48.688;boulevard du général de gaulle, draveil, france;avenue du général de gaulle, paray-vieille-poste, france;avenue du général de gaulle, juvisy-sur-orge, france;avenue du général de gaulle, viry-châtillon, france;place du général de gaulle, athis-mons, france
157;33 rue guersant, paris, france;guersant;2.289;48.882;rue guersant, paris, france;chemin guersant, paris, france;rue du docteur guersant, dreux, france;rue du docteur guersant, aulnoye-aymeries, france;place du docteur guersant, aulnoye-aymeries, france
156;1 place des marronniers, montbazon, france;marronniers;0.713;47.287;place des marronniers, montbazon, france;rue des marronniers, saint-avertin, france;avenue des marronniers, saint-branchs, france;allée des marronniers, joué-lès-tours, france;rue des marronniers, ballan-miré, france
155;79 rue saint-dominique, paris, france;saint-dominique;2.309;48.86;rue saint-dominique, paris, france;rue saint-dominique, châlons-en-champagne, france;avenue saint-dominique, saint-herblain, france;rue saint-dominique, clermont-ferrand, france;impasse saint-dominique, aumale, france
154;103 rue la boétie, paris, france;boétie;2.307;48.871;rue la boétie, paris, france;allée la boétie, sevran, france;rue de la boétie, mennecy, france;rue etienne de la boetie, eybens, france;rue de la boétie, ormes, france
153;10 rue brochant, paris, france;brochant;2.318;48.888;rue brochant, paris, france;;;;
152;9 place du concert, lille, france;concert;3.061;50.642;place du concert, lille, france;zone d'aménagement concerté du val de deûle i, quesnoy-sur-deûle, france;rue du concert, villeneuve-d'ascq, france;zone d'aménagement concerté de la viscourt, halluin, france;zone d'aménagement concerté de l'europe, orchies, france
151;28 rue kuhn, strasbourg, france;rue kuhn;7.737;48.585;rue kuhn, strasbourg, france;rue kuhnenbach, maisonsgoutte, france;rue jean paul kuhn, sainte-marie-aux-mines, france;route du kuhnensand, strasbourg, france;rue du nord, kunheim, france
150;place diana, la grande-motte, france;diana;4.091;43.557;place diana, la grande-motte, france;piazza diana, vivario, france;résidence le diana, cannes, france;avenue de diana, aléria, france;résidence de diana, aléria, france
148;caillau, vire-sur-lot, france;caillau;1.101;44.48;caillau, vire-sur-lot, france;caillau, saint-christoly-de-blaye, france;caillau, aillas, france;caillauca, flaujagues, france;caillau ruines, faudoas, france
149;18 rue de paris, charenton-le-pont, france;paris;2.419;48.819;avenue de paris, paray-vieille-poste, france;rue de paris, charenton-le-pont, france;rue de paris, montreuil, france;avenue de paris, vincennes, france;avenue des champs-élysées, paris, france
147;52 rue de genève, ferney-voltaire, france;genève;6.115;46.253;avenue de genève, france;rue de genève, ferney-voltaire, france;route de genève, france;route de genève, cessy, france;rue de genève, saint-genis-pouilly, france
146;61 rue des trois frères, paris, france;frères;2.338;48.886;rue des trois frères, paris, france;boulevard des frères voisin, issy-les-moulineaux, france;cour des 3 frères, paris, france;rue des frères flavien, paris, france;impasse des 3 beaux frères, issy-les-moulineaux, france
145;3212 chemin de tanvol, viriat, france;tanvol;5.265;46.24;carrefour de tanvol, viriat, france;chemin de tanvol, viriat, france;route de tanvol, meillonnas, france;;
144;3 avenue de la république, paris, france;république;2.367;48.867;place de la république, paris, france;avenue de la république, paris, france;place de la république, levallois-perret, france;place de la republique, clichy, france;avenue de la république, aubervilliers, france
143;25 place de bethune, lille, france;bethune;3.062;50.633;rue de béthune, lille, france;place de béthune, lille, france;rue du faubourg de béthune, lille, france;route de béthune, lens, france;rue de béthune, wattrelos, france
142;1 rue pierre brossolette, le plessis-bouchard, france;brossolette;2.236;49.001;rue pierre brossolette, le plessis-bouchard, france;rue pierre brossolette, levallois-perret, france;rue pierre brossolette, eaubonne, france;rue pierre brossolette, taverny, france;rue pierre brossolette, sartrouville, france
141;12 quai marc seguin, tournon-sur-rhône, france;seguin;4.834;45.068;quai marc seguin, tournon-sur-rhône, france;place marc seguin, tain-l'hermitage, france;seguin, lignan-de-bordeaux, france;seguin, saint-fortunat-sur-eyrieux, france;seguin, saint-pardon-de-conques, france
140;118 rue véron, alfortville, france;véron;2.415;48.808;square véron, alfortville, france;rue véron, alfortville, france;rue véron, paris, france;rue véronèse, paris, france;étable de véronge, la chapelle-moutils, france
139;route de murs, null gordes;de murs;5.203;43.92;route de murs, gordes, france;route de murs, venasque, france;chemin de sous les murs, martel, france;rue de sous les murs, oisy, france;rue de mursay, échiré, france
138;19 rue georges clemenceau, saint-quay-portrieux, france;clemenceau;-2.829;48.647;boulevard georges clemenceau, rennes, france;boulevard clemenceau, saint-brieuc, france;rue clemenceau, étables-sur-mer, france;rue georges clemenceau, nantes, france;avenue georges clemenceau, caen, france
137;25 rue jeanne d'arc, saint-quay-portrieux, france;d'arc;-2.838;48.654;boulevard d'arcachon, la teste-de-buch, france;rue d'arcole, le mans, france;rue d'arcole, paris, france;pont d'arcole, paris, france;rue d'archiac, tonnay-charente, france
136;4 boulevard de port-royal, paris, france;port-royal;2.351;48.837;boulevard de port-royal, paris, france;square de port-royal, paris, france;cité de port-royal, paris, france;allée du port royal, montreuil, france;route de port royal, montigny-le-bretonneux, france
135;26 avenue des champs elysées, paris, france;elysées;2.309;48.869;champs-élysées, paris, france;champs elysées, champignelles, france;avenue des elysées, valras-plage, france;;
134;175 grande rue charles de gaulles, nogent-sur-marne, france;gaulles;2.481;48.836;;;;;
133;3 rue charles vii, nogent-sur-marne, france;charles vii;2.486;48.837;rue charles vii, nogent-sur-marne, france;avenue charles vii, saint-maur-des-fossés, france;rue charles viii, amboise, france;quai charles vii, chinon, france;place charles vii, rians, france
132;12 rue piliers de tutelle, bordeaux, france;tutelle;-0.574;44.841;chemin de la tutelle, saint-georges-de-didonne, france;chemin de la tutelle, poucharramet, france;chemin de tutelle, castres, france;;
131;41 rue de la rochefoucauld, paris, france;rochefoucauld;2.335;48.88;rue de la rochefoucauld, paris, france;rue de la rochefoucauld, boulogne-billancourt, france;square de la rochefoucauld, paris, france;rue de la rochefoucauld, les lilas, france;allée de la rochefoucauld, clichy-sous-bois, france
130;12 rue de charonne, paris, france;charonne;2.374;48.852;rue de charonne, paris, france;boulevard de charonne, paris, france;la charonnerie, évry-grégy-sur-yerre, france;rue des charonnes, malay-le-grand, france;la charonnerie, bonneval, france
128;12 rue bourgeot, l'haÿ-les-roses, france;bourgeot;2.336;48.779;rue bourgeot, l'haÿ-les-roses, france;place de la bourgeoterie, villeneuve-les-bordes, france;la bourgeottière, courdemanche, france;le bourgeot, mansigné, france;bois bourgeot, saint-léger-des-vignes, france
129;restaurant, montclus, france;restaurant;4.441;44.263;restaurant, carsan, france;restaurant universitaire, avignon, france;restaurant universitaire, aix-en-provence, france;restaurant le galilée, avenue jean capelle ouest, villeurbanne, france;restaurant universitaire rabelais, poitiers, france
126;27 route de saint omer, socx, france;saint omer;2.421;50.934;route de saint-omer, calais, france;rue de saint-omer, renescure, france;rue de saint-omer, lille, france;route de saint-omer, zegerscappel, france;route de saint-omer, west-cappel, france
127;8 rue jean burguet, bordeaux, france;burguet;-0.578;44.834;rue jean burguet, bordeaux, france;burguet, mortagne-sur-sèvre, france;burguet, ganties, france;burguet, gouzens, france;le burguet, bréville, france
125;4 rue pierre leroux, paris, france;leroux;2.319;48.85;rue pierre leroux, paris, france;rue leroux, paris, france;rue leroux, saint-maur-des-fossés, france;rue pierre leroux, alfortville, france;rue françois leroux, orsay, france
124;43 rue de seine, paris, france;seine;2.337;48.855;rue de seine, paris, france;voie georges pompidou, paris, france;seine en vue, quai georges gorse, boulogne-billancourt, france;rue de seine, boulogne-billancourt, france;impasse de la seine, issy-les-moulineaux, france
123;84 avenue secrétan, paris, france;secrétan;2.378;48.879;avenue secrétan, paris, france;avenue secrétan, dives-sur-mer, france;;;
122;3 rue poissonnière, paris, france;poissonnière;2.348;48.869;boulevard poissonnière, paris, france;rue du faubourg poissonnière, paris, france;rue poissonnière, paris, france;villa poissonnière, paris, france;rue poissonnière, gennevilliers, france
121;177 rue sainte-catherine, bordeaux, france;sainte-catherine;-0.573;44.835;cité dulamon 196 sainte-catherine, bordeaux, france;rue parlement sainte-catherine, bordeaux, france;rue sainte-catherine, bordeaux, france;impasse sainte-catherine, bordeaux, france;sainte-catherine, langoiran, france
120;8 place du marché gayot, strasbourg, france;gayot;7.753;48.583;place du marché gayot, strasbourg, france;fort gayot, bar-sur-seine, france;chemin de la gayotte, chardonnay, france;chemin du gayot, saint-jean-de-moirans, france;rue du lieutenant gayot, brétigny-sur-orge, france
119;30 avenue victor hugo, les pavillons-sous-bois, france;victor hugo;2.514;48.91;avenue victor hugo, les pavillons-sous-bois, france;place victor hugo, paris, france;avenue victor hugo, paris, france;villa victor hugo, paris, france;avenue victor hugo, nogent-sur-marne, france
118;16 cours de vincennes, paris, france;vincennes;2.4;48.847;cours de vincennes, paris, france;fort de vincennes, paris, france;rue de vincennes, montreuil, france;vincennes, la fontaine-saint-martin, france;boulevard de vincennes, fontenay-sous-bois, france
117;38 avenue de lanessan, champagne-au-mont-d'or, france;lanessan;4.793;45.795;avenue de lanessan, champagne-au-mont-d'or, france;lanessan, cussac-fort-médoc, france;rue de lanessan, guérigny, france;rue lanessan, saint-andré-de-cubzac, france;
116;70 rue vincent raspail, la garde, france;raspail;6.01;43.125;impasse vincent raspail, la garde, france;rue vincent raspail, la garde, france;place vincent raspail, toulon, france;boulevard raspail, avignon, france;raspaillac, barjac, france
115;2 rue des fantasques, lyon, france;fantasques;4.837;45.774;rue des fantasques, lyon, france;ruelle des fantasques, lyon, france;;;
113;24 rue du général leclerc, versailles, france;leclerc;2.126;48.799;boulevard du général leclerc, nanterre, france;rue du général leclerc, bois-colombes, france;avenue du général leclerc, viroflay, france;rue du général leclerc, franconville, france;avenue du général leclerc, boulogne-billancourt, france
114;9 place du marché, palavas-les-flots, france;marché;3.932;43.528;place du marché, palavas-les-flots, france;avenue du marché gare, montpellier, france;place du marché aux fleurs, montpellier, france;marché couvert, rue émile grand, albi, france;place du marché, la grande-motte, france
111;6 passage brady, paris, france;brady;2.355;48.871;passage brady, paris, france;rue du pont brady, la villeneuve-bellenoye-et-la-maize, france;;;
112;23 rue petit bonneveau, poitiers, france;bonneveau;0.339;46.579;bonnevaux, marçay, france;bonneveau, vallet, france;bonneveaux, brigueil-le-chantre, france;bonnevault, larchant, france;bonneveau, tuffé, france
110;6 bis allée des muletiers, mordelles, france;muletiers;-1.852;48.072;allée des muletiers, mordelles, france;chemin des muletiers, liré, france;chemin des muletiers, la barre-de-monts, france;chemin des muletiers, turquant, france;rue des muletiers, écretteville-lès-baons, france
109;95 cours du général leclerc, langon, france;leclerc;-0.247;44.553;cours du général leclerc, langon, france;boulevard du général leclerc, arcachon, france;rue du général leclerc, biscarrosse, france;rue maréchal leclerc, saint-astier, france;rue du général leclerc, la réole, france
108;1 rue orsel, oullins, france;orsel;4.81;45.716;rue orsel, oullins, france;tunnel d' orelle, orelle, france;boulevard m orelu, sury-le-comtal, france;oreleve, rousset-les-vignes, france;orselas bas, saint-clément, france
107;2 rue eugène carrière, paris, france;carrière;2.332;48.889;avenue des carrières, paris, france;place anne-marie carrière, paris, france;rue des carrières d'amérique, paris, france;carrière wellington, arras, france;carrière dorée, orchies, france
106;8 rue tiphaine, paris, france;tiphaine;2.295;48.849;rue tiphaine, france;rue tiphaine raguenel, saint-erblon, france;rue tiphaine raguenel, tinténiac, france;rue tiphaine raguenel, la vicomté-sur-rance, france;rue tiphaine raguenel, dinan, france
105;8 rue abel hovelacque, paris, france;hovelacque;2.353;48.833;rue abel hovelacque, paris, france;rue hovelacque, lille, france;;;
104;19 avenue de narbonne, saint-laurent-de-la-cabrerisse, france;narbonne;2.7;43.085;avenue de narbonne, saint-laurent-de-la-cabrerisse, france;narbonne cathedral, narbonne, france;narbonne - ecluse de mandirac, narbonne, france;ancien chemin de narbonne, carcassonne, france;gare de péage narbonne sud, narbonne, france
103;16 rue jean-jacques rousseau, paris, france;rousseau;2.341;48.863;rue jean-jacques rousseau, paris, france;villa jean jacques rousseau, issy-les-moulineaux, france;rue waldeck rousseau, saint-ouen-l'aumône, france;rue jean jacques rousseau, issy-les-moulineaux, france;rue jean jacques rousseau, saint-ouen, france
102;60 rue armand caduc, la réole, france;caduc;-0.039;44.582;caduc-ouest, moulon, france;rue armand caduc, bordeaux, france;combe caduc, fléac, france;la caducière, saint-paul-en-pareds, france;rue du caducée, montpellier, france
101;14 rue sauval, paris, france;sauval;2.343;48.862;rue sauval, paris, france;rue de la croix sauvalle, forêt-la-folie, france;la sauvallerie, martigné-ferchaud, france;;
100;16 boulevard victor hugo, saint-rémy-de-provence, france;victor hugo;4.832;43.787;boulevard victor hugo, saint-rémy-de-provence, france;boulevard victor hugo, nîmes, france;boulevard victor hugo, montpellier, france;rue victor hugo, avignon, france;avenue victor hugo, arles, france
99;rue kléber, auch, france;kléber;0.589;43.65;rue kléber, auch, france;rue kléber haedens, toulouse, france;avenue kléber, paris, france;avenue kléber, biarritz, france;rue kléber, tarbes, france
98;30 patio des reflets, courbevoie, france;reflets;2.248;48.89;place des reflets, courbevoie, france;reflets-en-seine, boulogne-billancourt, france;impasse des reflets, carnac, france;rue des reflets, sète, france;impasse des reflets des étangs, narbonne, france
97;21 rue du grand pont, rochefort-du-gard, france;grand pont;4.688;43.974;rue du grand pont, rochefort-du-gard, france;route du grand pont, saint-jean-de-muzols, france;rue grand pont, rouen, france;route du grand pont, le vésinet, france;chemin du grand pont, sorgues, france
96;36 rue de strasbourg, chalon-sur-saône, france;strasbourg;4.86;46.78;rue de strasbourg, chalon-sur-saône, france;boulevard de strasbourg, paris, france;route de strasbourg, caluire-et-cuire, france;cathédrale notre dame de strasbourg, tramway de strasbourg, strasbourg, france;boulevard de strasbourg, dijon, france
95;11 avenue des minimes, toulouse, france;minimes;1.437;43.617;avenue des minimes, toulouse, france;boulevard des minimes, toulouse, france;pont des minimes, toulouse, france;impasse des minimes, toulouse, france;allée des minimes, auzeville-tolosane, france
94;4 rue des faussets, bordeaux, france;faussets;-0.57;44.841;rue des faussets, bordeaux, france;;;;
93;16 le bourg, lurcy, france;bourg;4.782;46.063;au bourg, lurcy, france;le bourg, lurcy, france;route de bourg en bresse, civrieux, france;allée du petit bourg, savigneux, france;bourg st andeol, pierrelatte, france
92;33 rue de la plaine des bouchers, strasbourg, france;bouchers;7.737;48.569;rue des bouchers, strasbourg, france;rue des bouchers, lampertheim, france;rue des bouchers, la wantzenau, france;rue des bouchers, quatzenheim, france;rue des bouchers, hœrdt, france
91;14 place du grand jardin, vence, france;jardin;7.114;43.722;jardin mozart, nice, france;jardin françois binon, villefranche-sur-mer, france;place du grand jardin, vence, france;jardins de l'etoile, la gaude, france;jardin de pomone, biot, france
89;27 rue racine, le havre, france;racine;0.106;49.49;rue racine, le havre, france;rue racine, paris, france;place racine, poissy, france;résidence jean racine, caen, france;rue jean racine, caen, france
90;134 espl. le cours, vinon-sur-verdon, france;cours;5.812;43.726;cours mirabeau, aix-en-provence, france;cours gambetta, aix-en-provence, france;cours julien, marseille, france;cours sextius, aix-en-provence, france;cours belsunce, marseille, france
87;9 rue saint augustin, paris, france;augustin;2.337;48.869;rue saint-augustin, paris, france;rue augustine variot, malakoff, france;quai des grands augustins, paris, france;rue des grands augustins, paris, france;avenue augustin dumont, malakoff, france
88;7 rue de jarente, paris, france;jarente;2.363;48.856;rue de jarente, paris, france;rue jarente, lyon, france;chemin des jarentes, morancé, france;rue jarente, chazay-d'azergues, france;
86;17 rue du choiseul, paris, france;choiseul;2.336;48.87;rue de choiseul, paris, france;passage choiseul, paris, france;place etienne françois choiseul, montigny-le-bretonneux, france;rue horace de choiseul, viry-châtillon, france;square choiseul, le chesnay, france
85;44 rue des tournelles, paris, france;tournelles;2.367;48.856;rue des tournelles, paris, france;rue des tournelles, l'haÿ-les-roses, france;rue des tournelles, yerres, france;impasse des tournelles, courbevoie, france;rue des tournelles, cachan, france
