id;ref address;query;query lon;query lat;result 1;result 2;result 3;result 4;result 5
1;161 rue de bourgogne, 45000 orléans;bourgogne;1.911674;47.900291;159 rue de bourgogne, 45000 orleans;161 rue de bourgogne, 45000 orleans;163 rue de bourgogne, 45000 orleans;157 rue de bourgogne, 45000 orleans;166 rue de bourgogne, 45000 orleans
0;9, rue du commandant rivière, 75008 paris;rivière;2.30821;48.872667;9 rue du commandant rivière, 75008 paris;12 rue du commandant rivière, 75008 paris;10 rue du commandant rivière, 75008 paris;7 rue du commandant rivière, 75008 paris;5 rue du commandant rivière, 75008 paris
496;boulevard louison bobet, 56170 quiberon;bobet;-3.104289;47.480724;4 boulevard louison bobet, 56170 quiberon;6 boulevard louison bobet, 56170 quiberon;2 boulevard louison bobet, 56170 quiberon;1 boulevard louison bobet, 56170 quiberon;4 rue louison bobet, 56400 auray
497;la cerce, 89200 sauvigny-le-bois;cerce;3.96748;47.497393;2 hameau de la cerce, 89200 undefined;6 hameau de la cerce, 89200 undefined;267 tuilerie de cerce, 89200 undefined;268 tuilerie de cerce, 89200 undefined;1 hameau de la cerce, 89200 undefined
494;5 rue marchand, 91100 corbeil-essonnes;marchand;2.467094;48.604099;6 rue marchand, 91100 corbeil-essonnes;5 rue marchand, 91100 corbeil-essonnes;17 rue marchand, 91100 corbeil-essonnes;8 rue marchand, 91100 corbeil-essonnes;4 rue marchand, 91100 corbeil-essonnes
495;29 rue sambre-et-meuse, 75010 paris;sambre-et-meuse;2.37298;48.874576;29 rue de sambre-et-meuse, 75010 paris;38 rue de sambre-et-meuse, 75010 paris;31 rue de sambre-et-meuse, 75010 paris;40 rue de sambre-et-meuse, 75010 paris;27 rue de sambre-et-meuse, 75010 paris
492;5, rue des vieux moulins, 77100 meaux;moulins;2.87724;48.95977;5 rue des vieux moulins, 77100 meaux;3 rue des vieux moulins, 77100 meaux;2 rue des vieux moulins, 77100 meaux;1 rue des vieux moulins, 77100 meaux;4 rue des vieux moulins, 77100 meaux
491;20 rue jules horowitz, 13115 saint paul lès durance;horowitz;5.733841;43.693748;18 rue jules horowitz, 13115 undefined;20 rue jules horowitz, 13115 undefined;5062 rue jules horowitz, 13115 undefined;9096 rue jules horowitz, 13115 undefined;9073 rue jules horowitz, 13115 undefined
490;route nationale 96 quartier des vieilles tuileries, 13860 peyrolles-en-provence;tuileries;5.59851;43.647784;29 lotissement le jardin des tuileries, 13610 le puy-sainte-réparade;28 lotissement le jardin des tuileries, 13610 le puy-sainte-réparade;30 lotissement le jardin des tuileries, 13610 le puy-sainte-réparade;26 lotissement le jardin des tuileries, 13610 le puy-sainte-réparade;31 lotissement le jardin des tuileries, 13610 le puy-sainte-réparade
488;8 rue botanique, 49100 angers;botanique;-0.547385;47.474096;8 rue botanique, 49100 angers;10 rue botanique, 49100 angers;11 rue botanique, 49100 angers;9 rue botanique, 49100 angers;6 rue botanique, 49100 angers
489;13 rue lagrange, 75005 paris;lagrange;2.348317;48.85114;13 rue lagrange, 75005 paris;11 rue lagrange, 75005 paris;15 rue lagrange, 75005 paris;17 rue lagrange, 75005 paris;12 rue lagrange, 75005 paris
486;55 boulevard de vaugirard, 75015 paris;vaugirard;2.316657;48.840722;55 boulevard de vaugirard, 75015 paris;57 boulevard de vaugirard, 75015 paris;51 boulevard de vaugirard, 75015 paris;59 boulevard de vaugirard, 75015 paris;49 boulevard de vaugirard, 75015 paris
487;28 rue du cardinal lemoine, 75005 paris;lemoine;2.352693;48.848096;28 rue du cardinal lemoine, 75005 paris;30 rue du cardinal lemoine, 75005 paris;29 rue du cardinal lemoine, 75005 paris;24 rue du cardinal lemoine, 75005 paris;25 rue du cardinal lemoine, 75005 paris
485;27 boulevard de la république, 71100 chalon-sur-saône;république;4.849271;46.783243;25 boulevard de la république, 71100 chalon-sur-saône;27 boulevard de la république, 71100 chalon-sur-saône;23 boulevard de la république, 71100 chalon-sur-saône;21 boulevard de la république, 71100 chalon-sur-saône;30 boulevard de la république, 71100 chalon-sur-saône
484;18, place du château, 17500 jonzac;château;-0.43162;45.445648;24 place du château, 17500 jonzac;25 place du château, 17500 jonzac;22 place du château, 17500 jonzac;21 place du château, 17500 jonzac;1 rue du château, 17500 jonzac
483;place maurice faure, 26100 romans-sur-isère;faure;5.04913;45.042886;12 place maurice faure, 26100 romans-sur-isère;11 place maurice faure, 26100 romans-sur-isère;14 place maurice faure, 26100 romans-sur-isère;13 place maurice faure, 26100 romans-sur-isère;9 place maurice faure, 26100 romans-sur-isère
482;10-12, boulevard maréchal foch, 21200 beaune;maréchal foch;4.83625;47.026959;10 boulevard maréchal foch, 21200 beaune;12 boulevard maréchal foch, 21200 beaune;8 boulevard maréchal foch, 21200 beaune;14 boulevard maréchal foch, 21200 beaune;6 boulevard maréchal foch, 21200 beaune
481;275, route de saint antoine ginestière, 06200 nice;ginestière;7.21717;43.706937;348 chemin de la ginestière, 06200 nice;341 chemin de la ginestière, 06200 nice;344 chemin de la ginestière, 06200 nice;342 chemin de la ginestière, 06200 nice;338 chemin de la ginestière, 06200 nice
480;27 grand rue, 34700 lodève;grand rue;3.319853;43.731001;0 rue grand chemin, 12230 undefined;5043 rue grand chemin, 12230 undefined;2 rue grand chemin, 12230 undefined;6 rue grand chemin, 12230 undefined;8 rue grand chemin, 12230 undefined
479;46, rue de la balance, 84000 avignon;balance;4.80577;43.951928;50 rue de la balance, 84000 avignon;35 rue de la balance, 84000 avignon;31 rue de la balance, 84000 avignon;46 rue de la balance, 84000 avignon;48 rue de la balance, 84000 avignon
478;route de manosque, 84240 la bastide-des-jourdans;manosque;5.640144;43.786117;8 route de manosque, 84240 undefined;3 route de manosque, 84240 undefined;5 route de manosque, 84240 undefined;7 route de manosque, 84240 undefined;9 route de manosque, 84240 undefined
477;1 rue du faubourg saint-antoine, 75011 paris;saint-antoine;2.370511;48.853322;1 rue du faubourg saint-antoine, 75011 paris;3 rue du faubourg saint-antoine, 75011 paris;5 rue du faubourg saint-antoine, 75011 paris;2 rue du faubourg saint-antoine, 75012 paris;9 rue du faubourg saint-antoine, 75011 paris
475;2 rue jean corringer, 91270 vigneux-sur-seine;corringer;2.423311;48.706145;2 rue jean corringer, 91270 montgeron;3 rue jean corringer, 91270 montgeron;1 rue jean corringer, 91270 montgeron;4 rue jean corringer, 91270 montgeron;6 rue jean corringer, 91270 montgeron
476;12 rue dante, 06000 nice;dante;7.254141;43.695774;12 rue dante, 06000 nice;11 rue dante, 06000 nice;10 rue dante, 06000 nice;14 rue dante, 06000 nice;9 rue dante, 06000 nice
474;12 quai des célestins, 75004 paris;célestins;2.361439;48.852206;12 quai des célestins, 75004 paris;10 quai des célestins, 75004 paris;14 quai des célestins, 75004 paris;8 quai des célestins, 75004 paris;6 quai des célestins, 75004 paris
473;7 rue de la duchesse d'uzès, 51480 boursault;d'uzès;3.846525;49.060422;7 rue de la duchesse d'uzès, 51480 undefined;5002 rue de la duchesse d'uzès, 51480 undefined;11 rue de la duchesse d'uzès, 51480 undefined;13 rue de la duchesse d'uzès, 51480 undefined;15 rue de la duchesse d'uzès, 51480 undefined
472;46 passage clemenceau, 03200 vichy;clemenceau;3.422888;46.125122;9001 passage clemenceau, 03200 vichy;43 passage clemenceau, 03200 vichy;22 passage clemenceau, 03200 vichy;45 passage clemenceau, 03200 vichy;47 passage clemenceau, 03200 vichy
471;251 rue gallieni, 92100 boulogne-billancourt;gallieni;2.22716;48.834826;253 rue gallieni, 92100 boulogne-billancourt;251 rue gallieni, 92100 boulogne-billancourt;255 rue gallieni, 92100 boulogne-billancourt;249 rue gallieni, 92100 boulogne-billancourt;210 rue gallieni, 92100 boulogne-billancourt
469;7, rue brochant, 75017 paris;brochant;2.31703;48.888386;9 rue brochant, 75017 paris;7 rue brochant, 75017 paris;5 rue brochant, 75017 paris;8 rue brochant, 75017 paris;6 rue brochant, 75017 paris
470;le moulin, 12320 conques;moulin;2.440639;44.580661;1 moulin de sanhes, 12320 undefined;2 moulin de sanhes, 12320 undefined;5319 moulin de sanhes, 12320 undefined;5407 moulin de sanhes, 12320 undefined;45 route du moulin, 12320 undefined
468;4 rue violet, 75015 paris;violet;2.294793;48.849632;4 rue violet, 75015 paris;2 rue violet, 75015 paris;7 rue violet, 75015 paris;5 rue violet, 75015 paris;3 rue violet, 75015 paris
467;9, place des martyrs de la résistance, 33340 lesparre-médoc;résistance;-0.94549;45.30436;10 place martyrs de la résistance, 33340 undefined;8 place martyrs de la résistance, 33340 undefined;7 place martyrs de la résistance, 33340 undefined;6 place martyrs de la résistance, 33340 undefined;9 place martyrs de la résistance, 33340 undefined
466;27, rue thiers, 08600 givet;thiers;4.82555;50.13771;27 rue thiers, 08600 givet;23 rue thiers, 08600 givet;25 rue thiers, 08600 givet;24 rue thiers, 08600 givet;28 rue thiers, 08600 givet
465;7, place surian, 06140 vence;surian;7.11383;43.721901;11 place surian, 06140 vence;10 place surian, 06140 vence;9 place surian, 06140 vence;8 place surian, 06140 vence;7 place surian, 06140 vence
464;43, rue du général de gaulle, 67110 niederbronn-les-bains;gaulle;7.64585;48.95027;43 rue du général de gaulle, 67110 niederbronn-les-bains;32 rue du général de gaulle, 67110 niederbronn-les-bains;39 rue du général de gaulle, 67110 niederbronn-les-bains;30 rue du général de gaulle, 67110 niederbronn-les-bains;45 rue du général de gaulle, 67110 niederbronn-les-bains
463;8 rue amédée bolle, 68127 sainte-croix-en-plaine;bolle;7.376857;48.01696;1 rue amédée bolle, 68127 sainte-croix-en-plaine;9002 rue amedee bolle, undefined sainte-croix-en-plaine;4 rue amédée bolle, 68127 sainte-croix-en-plaine;500 rue amédée bolle, 68127 sainte-croix-en-plaine;7 rue amédée bolle, 68127 sainte-croix-en-plaine
462;58 rue du maréchal foch, 59120 loos;maréchal foch;3.017895;50.615366;0 rue du maréchal foch, 59120 loos;0 rue du maréchal foch, 59120 lille;15 rue maréchal foch, 62590 libercourt;13 rue maréchal foch, 62590 libercourt;22 rue maréchal foch, 62590 libercourt
461;15 avenue de saria, 77700 serris;saria;2.790856;48.841548;15 avenue de saria, 77700 serris;9014 avenue de saria, 77700 serris;14 avenue de saria, 77700 serris;12 avenue de saria, 77700 serris;13 avenue de saria, 77700 serris
460;117, rue monge, 75005 paris;monge;2.35098;48.839177;112 rue monge, 75005 paris;110 rue monge, 75005 paris;116 rue monge, 75005 paris;114 rue monge, 75005 paris;119 rue monge, 75005 paris
458;5, grand rue, 68280 logelheim;grand rue;7.40798;48.021067;30 gr grand rue, undefined sundhoffen;26 gr grand rue, undefined sundhoffen;32 gr grand rue, undefined sundhoffen;34 gr grand rue, undefined sundhoffen;24 gr grand rue, undefined sundhoffen
459;3 rue du port, 50100 cherbourg-en-cotentin;du port;-1.622435;49.640405;9002 rue du petit port, 50120 querqueville;9001 rue du petit port, 50120 querqueville;43 rue du petit port, 50120 querqueville;55 rue du petit port, 50120 querqueville;41 rue du petit port, 50120 querqueville
457;33 rue de la borie, 19300 égletons;borie;2.047046;45.400766;31 rue de la borie, 19300 égletons;33 rue de la borie, 19300 égletons;29 rue de la borie, 19300 égletons;27 rue de la borie, 19300 égletons;18 rue de la borie, 19300 égletons
456;43 avenue de la gare, 24200 sarlat-la-canéda;la gare;1.219415;44.877743;9007 la gare, 12700 capdenac-gare;9005 la gare, 12700 capdenac-gare;9002 la gare, 12700 capdenac-gare;9006 la gare, 12700 capdenac-gare;5077 la gare, 12700 undefined
455;6, rue etienne marcel, 75002 paris;marcel;2.35039;48.863721;6 rue etienne marcel, 75002 paris;8 rue etienne marcel, 75002 paris;4 rue etienne marcel, 75002 paris;5 rue etienne marcel, 75001 paris;3 rue etienne marcel, 75001 paris
454;27 avenue armand guillebaud, 92160 antony;guillebaud;2.306538;48.749066;23 avenue armand guillebaud, 92160 antony;25 avenue armand guillebaud, 92160 antony;29 avenue armand guillebaud, 92160 antony;27 avenue armand guillebaud, 92160 antony;26 avenue armand guillebaud, 92160 antony
453;90 cours de vincennes, 75012 paris;vincennes;2.407467;48.846852;90 cours de vincennes, 75012 paris;92 cours de vincennes, 75012 paris;88 cours de vincennes, 75012 paris;94 cours de vincennes, 75012 paris;96 cours de vincennes, 75012 paris
452;132 rue lecourbe, 75015 paris;lecourbe;2.300972;48.84224;132 rue lecourbe, 75015 paris;130 rue lecourbe, 75015 paris;134 rue lecourbe, 75015 paris;127 rue lecourbe, 75015 paris;129 rue lecourbe, 75015 paris
451;20 place charles de gaulle, 78100 saint-germain-en-laye;gaulle;2.09512;48.897222;20 place charles de gaulle, 78100 saint-germain-en-laye;12 place charles de gaulle, 78100 saint-germain-en-laye;22 place charles de gaulle, 78100 saint-germain-en-laye;18 place charles de gaulle, 78100 saint-germain-en-laye;16 place charles de gaulle, 78100 saint-germain-en-laye
450;168 cours berriat, 38000 grenoble;berriat;5.705184;45.189175;168 cours berriat, 38000 grenoble;166 cours berriat, 38000 grenoble;170 cours berriat, 38000 grenoble;172 cours berriat, 38000 grenoble;164 cours berriat, 38000 grenoble
449;30 passage de la bourgade, 06410 biot;bourgade;7.097408;43.627715;36 passage de la bourgade, 06410 biot;34 passage de la bourgade, 06410 biot;24 passage de la bourgade, 06410 biot;25 passage de la bourgade, 06410 biot;28 passage de la bourgade, 06410 biot
448;37 6-39, rue pierre-henri mauger, 41700 contres;mauger;1.42866;47.418894;28 rue pierre-henri mauger, 41700 contres;26 rue pierre-henri mauger, 41700 contres;30 rue pierre-henri mauger, 41700 contres;24 rue pierre-henri mauger, 41700 contres;32 rue pierre-henri mauger, 41700 contres
447;43, rue castillon, 83000 toulon;castillon;5.94047;43.10994;56 rue castillon, 83000 toulon;45 rue castillon, 83000 toulon;43 rue castillon, 83000 toulon;52 rue castillon, 83000 toulon;41 rue castillon, 83000 toulon
446;36 rue de bagnolet, 75020 paris;bagnolet;2.397954;48.856899;36 rue de bagnolet, 75020 paris;35 rue de bagnolet, 75020 paris;38 rue de bagnolet, 75020 paris;34 rue de bagnolet, 75020 paris;51 rue de bagnolet, 75020 paris
445;22 place henri brousse, 92190 meudon;brousse;2.241465;48.807613;5 rue du docteur paul brousse, 75017 paris;7 rue du docteur paul brousse, 75017 paris;9 rue du docteur paul brousse, 75017 paris;11 rue du docteur paul brousse, 75017 paris;13 rue du docteur paul brousse, 75017 paris
444;38, rue de cambrai, 59000 lille;cambrai;3.07123;50.624236;36 rue de cambrai, 59000 lille;38 rue de cambrai, 59000 lille;34 rue de cambrai, 59000 lille;40 rue de cambrai, 59000 lille;32 rue de cambrai, 59000 lille
443;2 rue ramey, 75018 paris;ramey;2.347599;48.887265;2 rue ramey, 75018 paris;5 rue ramey, 75018 paris;3 rue ramey, 75018 paris;4 rue ramey, 75018 paris;7 rue ramey, 75018 paris
442;3, rue des faussets, 33000 bordeaux;faussets;-0.57043;44.840761;1 rue des faussets, 33000 bordeaux;3 rue des faussets, 33000 bordeaux;2 rue des faussets, 33000 bordeaux;5 rue des faussets, 33000 bordeaux;4 rue des faussets, 33000 bordeaux
440;3 rue basse, 78480 verneuil-sur-seine;basse;1.975981;48.980631;1 rue basse, 78480 verneuil-sur-seine;3 rue basse, 78480 verneuil-sur-seine;2 rue basse, 78480 verneuil-sur-seine;5 rue basse, 78480 verneuil-sur-seine;7 rue basse, 78480 verneuil-sur-seine
441;8, rue majour, 19100 brive-la-gaillarde;majour;1.53171;45.15977;3 rue majour, 19100 brive-la-gaillarde;4 rue majour, 19100 brive-la-gaillarde;2 rue majour, 19100 brive-la-gaillarde;6 rue majour, 19100 brive-la-gaillarde;8 rue majour, 19100 brive-la-gaillarde
439;4 cours jean jaurès, 38000 grenoble;jaurès;5.719901;45.191521;4 cours jean jaurès, 38000 grenoble;6 cours jean jaurès, 38000 grenoble;2 cours jean jaurès, 38000 grenoble;8 cours jean jaurès, 38000 grenoble;10 cours jean jaurès, 38000 grenoble
438;2 place de la chapelle neuve, 34000 montpellier;neuve;3.878912;43.613148;2 place de la chapelle neuve, 34000 montpellier;2 pl de la chapelle neuve, undefined montpellier;3 pl de la chapelle neuve, undefined montpellier;3 place de la chapelle neuve, 34000 montpellier;1 place de la chapelle neuve, 34000 montpellier
437;lieu dit 'la fabrègues', 12190 estaing;fabrègues';2.695;44.545283;5181 fabrègues, 12450 undefined;5182 fabrègues, 12450 undefined;5183 fabrègues, 12450 undefined;5130 la croux de fabrègues, 12310 undefined;5128 fabrègues, 12310 undefined
435;29 rue de l'exposition, 75007 paris;l'exposition;2.303495;48.857084;29 rue de l'exposition, 75007 paris;27 rue de l'exposition, 75007 paris;31 rue de l'exposition, 75007 paris;30 rue de l'exposition, 75007 paris;32 rue de l'exposition, 75007 paris
434;153 rue de lourmel, 75015 paris;lourmel;2.283527;48.84001;153 rue de lourmel, 75015 paris;151 rue de lourmel, 75015 paris;152 rue de lourmel, 75015 paris;149 rue de lourmel, 75015 paris;150 rue de lourmel, 75015 paris
433;40 route de frangy, 74960 meythet;frangy;6.092118;45.91491;40 route de frangy, 74960 meythet;38 route de frangy, 74960 meythet;36 route de frangy, 74960 meythet;13 route de frangy, 74960 meythet;11 route de frangy, 74960 meythet
432;10 rue des tonneliers, 64100 bayonne;tonneliers;-1.473636;43.490112;10 rue des tonneliers, 64100 bayonne;8 rue des tonneliers, 64100 bayonne;12 rue des tonneliers, 64100 bayonne;14 rue des tonneliers, 64100 bayonne;9 rue des tonneliers, 64100 bayonne
431;58, rue vasco de gama, 75015 paris;de gama;2.28423;48.83602;58 rue vasco de gama, 75015 paris;60 rue vasco de gama, 75015 paris;56 rue vasco de gama, 75015 paris;57 rue vasco de gama, 75015 paris;62 rue vasco de gama, 75015 paris
430;2, place de lisbonne - centre commercial odysseum, 34000 montpellier;odysseum;3.92011;43.60543;0 pl odysseum, undefined montpellier;;;;
429;602 rue louis saint-just, 60740 saint-maximin;saint-just;2.471556;49.244558;602 rue louis saint-just, 60740 creil;5299 rue louis saint-just, 60740 creil;542 rue louis saint-just, 60740 creil;565 rue louis saint-just, 60740 creil;251 rue louis saint-just, 60740 creil
428;104, rue de lille, 59420 mouvaux;lille;3.1322;50.698973;79 rue de lille, 59420 mouvaux;81 rue de lille, 59420 mouvaux;104 rue de lille, 59420 mouvaux;102 rue de lille, 59420 mouvaux;83 rue de lille, 59420 mouvaux
427;7 avenue de saint-germain, 78600 maisons-laffitte;saint-germain;2.144452;48.945123;7 avenue de saint-germain, 78600 maisons-laffitte;5 avenue de saint-germain, 78600 maisons-laffitte;9 avenue de saint-germain, 78600 maisons-laffitte;2 avenue de saint-germain, 78600 maisons-laffitte;11 avenue de saint-germain, 78600 maisons-laffitte
426;55, rue du faubourg montmartre, 75009 paris;montmartre;2.34044;48.875692;60 rue du faubourg montmartre, 75009 paris;59 rue du faubourg montmartre, 75009 paris;57 rue du faubourg montmartre, 75009 paris;58 rue du faubourg montmartre, 75009 paris;56 rue du faubourg montmartre, 75009 paris
425;59, rue boulainvilliers, 75016 paris;boulainvilliers;2.27466;48.857537;59 rue de boulainvilliers, 75016 paris;56 rue de boulainvilliers, 75016 paris;57 rue de boulainvilliers, 75016 paris;63 rue de boulainvilliers, 75016 paris;65 rue de boulainvilliers, 75016 paris
424;20, rue des halles, 75001 paris;halles;2.34649;48.859972;20 rue des halles, 75001 paris;11 rue des halles, 75001 paris;18 rue des halles, 75001 paris;16 rue des halles, 75001 paris;22 rue des halles, 75001 paris
423;rue des arceaux, 16000 angoulême;arceaux;0.157645;45.649125;5 rue des arceaux, 16000 angulema;12 rue des arceaux, 16000 angulema;9 rue des arceaux, 16000 angulema;14 rue des arceaux, 16000 angulema;3 rue des arceaux, 16000 angulema
422;35 rue de la roquette, 75011 paris-11e-arrondissement;roquette;2.373249;48.855085;35 rue de la roquette, 75011 paris;54 rue de la roquette, 75011 paris;33 rue de la roquette, 75011 paris;56 rue de la roquette, 75011 paris;52 rue de la roquette, 75011 paris
421;11 rue charles pierrugues, 06210 mandelieu-la-napoule;pierrugues;6.940567;43.523343;11 rue charles pierrugues, 06210 mandelieu-la-napoule;1 rue charles pierrugues, 06210 mandelieu-la-napoule;124 rue joseph pierrugues, 83700 saint-raphaël;144 rue joseph pierrugues, 83700 saint-raphaël;164 rue joseph pierrugues, 83700 saint-raphaël
420;140 avenue de saint-ouen, 75018 paris;saint-ouen;2.328765;48.896431;140 avenue de saint-ouen, 75018 paris;138 avenue de saint-ouen, 75018 paris;133 avenue de saint-ouen, 75017 paris;136 avenue de saint-ouen, 75018 paris;142 avenue de saint-ouen, 75018 paris
419;80, rue meynadier le suquet, 06400 cannes;suquet;7.012;43.551606;2 rue du suquet, 06400 cannes;4 rue du suquet, 06400 cannes;6 rue du suquet, 06400 cannes;1 rue du suquet, 06400 cannes;8 rue du suquet, 06400 cannes
418;3 rue amédée viii de savoie, 74160 saint-julien-en-genevois;savoie;6.080646;46.144381;5 rue amédée viii de savoie, 74160 saint-julien-en-genevois;7 rue amédée viii de savoie, 74160 saint-julien-en-genevois;9 rue amédée viii de savoie, 74160 saint-julien-en-genevois;2 rue amédée viii de savoie, 74160 saint-julien-en-genevois;6 rue amédée viii de savoie, 74160 saint-julien-en-genevois
417;17, rue saint-rémi, 33000 bordeaux;saint-rémi;-0.571491;44.8414;15 rue saint-rémi, 33000 bordeaux;18 rue saint-rémi, 33000 bordeaux;16 rue saint-rémi, 33000 bordeaux;13 rue saint-rémi, 33000 bordeaux;17 rue saint-rémi, 33000 bordeaux
416;42 route de galice, 13090 aix-en-provence;galice;5.425463;43.530581;42 route de galice, 13090 aix-en-provence;9002 route de galice, 13090 aix-en-provence;40 route de galice, 13090 aix-en-provence;9111 route de galice, 13090 aix-en-provence;9487 route de galice, 13090 aix-en-provence
415;13, boulevard carnot, 06560 valbonne;carnot;7.00813;43.642494;34 boulevard carnot, 06560 valbonne;13 boulevard carnot, 06560 valbonne;36 boulevard carnot, 06560 valbonne;11 boulevard carnot, 06560 valbonne;30 boulevard carnot, 06560 valbonne
414;15 boulevard de la corniche, 74000 annecy;corniche;6.13676;45.889592;3 boulevard de la corniche, 74000 undefined;9023 boulevard de la corniche, 74000 undefined;15 boulevard de la corniche, 74000 undefined;27 boulevard de la corniche, 74000 undefined;25 boulevard de la corniche, 74000 undefined
413;130 quai du port, 13002 marseille;du port;5.367721;43.296036;128 quai du port, 13002 marseille;130 quai du port, 13002 marseille;126 quai du port, 13002 marseille;124 quai du port, 13002 marseille;136 quai du port, 13002 marseille
412;28 avenue de paris, 95230 soisy-sous-montmorency;paris;2.292849;48.990314;30 avenue de paris, 95230 soisy-sous-montmorency;26 avenue de paris, 95230 soisy-sous-montmorency;59 avenue de paris, 95230 soisy-sous-montmorency;28 avenue de paris, 95230 soisy-sous-montmorency;57 avenue de paris, 95230 soisy-sous-montmorency
411;95 rue montaigne, 13012 marseille;montaigne;5.417427;43.303843;138 rue montaigne, 13012 marseille;93 rue montaigne, 13012 marseille;134 rue montaigne, 13012 marseille;140 rue montaigne, 13012 marseille;99 rue montaigne, 13012 marseille
409;123 rue des landes, 31830 plaisance-du-touch;landes;1.247323;43.552216;91 rue des landes, 31830 undefined;89 rue des landes, 31830 undefined;120 rue des landes, 31830 undefined;87 rue des landes, 31830 undefined;126 rue des landes, 31830 undefined
410;52 rue la fayette, 75009 paris;fayette;2.341319;48.875021;52 rue la fayette, 75009 paris;47 rue la fayette, 75009 paris;49 rue la fayette, 75009 paris;50 rue la fayette, 75009 paris;48 rue la fayette, 75009 paris
408;8 rue du doyenné, 72100 le mans;doyenné;0.198334;48.008595;8 rue du doyenne, 72000 le mans;6 rue du doyenne, 72000 le mans;9 rue du doyenne, 72000 le mans;5 rue du doyenne, 72000 le mans;4 rue du doyenne, 72000 le mans
407;97 avenue d'aquitaine, 33560 carbon-blanc;d'aquitaine;-0.506658;44.890541;24 avenue d'aquitaine, 33560 carbon-blanc;28 avenue d'aquitaine, 33560 carbon-blanc;26 avenue d'aquitaine, 33560 carbon-blanc;3 avenue d'aquitaine, 33560 carbon-blanc;18 avenue d'aquitaine, 33560 carbon-blanc
406;8, rue saint-hilaire ( la-varenne-saint-hilaire), 94210 saint-maur-des-fossés;la-varenne-saint-hilaire);2.51411;48.792953;;;;;
405;17 rue carnot, 92270 bois-colombes;carnot;2.268689;48.913565;17 rue carnot, 92270 bois-colombes;18 rue carnot, 92270 bois-colombes;16 rue carnot, 92270 bois-colombes;20 rue carnot, 92270 bois-colombes;15 rue carnot, 92270 bois-colombes
404;21, avenue baille, 13006 marseille;baille;5.38659;43.286708;25 boulevard baille, 13006 marseille;27 boulevard baille, 13006 marseille;23 boulevard baille, 13006 marseille;20 boulevard baille, 13006 marseille;22 boulevard baille, 13006 marseille
403;89 rue lemercier, 75017 paris;lemercier;2.319881;48.888742;89 rue lemercier, 75017 paris;91 rue lemercier, 75017 paris;86 rue lemercier, 75017 paris;88 rue lemercier, 75017 paris;87 rue lemercier, 75017 paris
402;5 impasse des sables, 89660 merry-sur-yonne;sables;3.64605;47.562722;5 impasse des sables, 89660 undefined;0 les sables, 89270 undefined;4 chemin des sables, 89240 diges;6 chemin des sables, 89240 diges;213 les sables, 89520 undefined
401;5 rue ambroise pauffert, 69250 neuville-sur-saône;pauffert;4.840396;45.875945;5 rue ambroise pauffert, 69250 neuville-sur-saône;3 rue ambroise pauffert, 69250 neuville-sur-saône;6 rue ambroise pauffert, 69250 neuville-sur-saône;4 rue ambroise pauffert, 69250 neuville-sur-saône;1 rue ambroise pauffert, 69250 neuville-sur-saône
400;45 rue brancion, 75015 paris;brancion;2.30446;48.83358;45 rue brancion, 75015 paris;47 rue brancion, 75015 paris;43 rue brancion, 75015 paris;41 rue brancion, 75015 paris;49 rue brancion, 75015 paris
399;39 avenue galois, 92340 bourg-la-reine;galois;2.321827;48.776916;39 avenue galois, 92340 bourg-la-reine;37 avenue galois, 92340 bourg-la-reine;41 avenue galois, 92340 bourg-la-reine;54 avenue galois, 92340 bourg-la-reine;56 avenue galois, 92340 bourg-la-reine
398;62 rue césaria évora, 75019 paris;évora;2.374355;48.897811;62 rue cesaria evora, 75019 paris;54 rue cesaria evora, 75019 paris;56 rue cesaria evora, 75019 paris;58 rue cesaria evora, 75019 paris;52 rue cesaria evora, 75019 paris
397;64 rue daguerre, 75014 paris;daguerre;2.326616;48.835197;64 rue daguerre, 75014 paris;62 rue daguerre, 75014 paris;59 rue daguerre, 75014 paris;61 rue daguerre, 75014 paris;57 rue daguerre, 75014 paris
396;1, rue damrémont, 75018 paris;damrémont;2.33248;48.887267;1 rue damrémont, 75018 paris;3 rue damrémont, 75018 paris;6 rue damrémont, 75018 paris;4 rue damrémont, 75018 paris;8 rue damrémont, 75018 paris
395;24 avenue de la république, 75011 paris;république;2.370085;48.865961;24 avenue de la république, 75011 paris;15 avenue de la république, 75011 paris;17 avenue de la république, 75011 paris;19 avenue de la république, 75011 paris;26 avenue de la république, 75011 paris
394;69 rue guillaume puy, 84000 avignon;guillaume puy;4.814187;43.945409;69 rue guillaume puy, 84000 avignon;71 rue guillaume puy, 84000 avignon;67 rue guillaume puy, 84000 avignon;63 rue guillaume puy, 84000 avignon;66 rue guillaume puy, 84000 avignon
393;18, rue joseph vernet, 84000 avignon;vernet;4.80375;43.94955;18 rue joseph vernet, 84000 avignon;16 rue joseph vernet, 84000 avignon;19 rue joseph vernet, 84000 avignon;17 rue joseph vernet, 84000 avignon;20 rue joseph vernet, 84000 avignon
392;14, faubourg rivotte, 25000 besançon;rivotte;6.03435;47.23222;14 faubourg rivotte, 25000 besancon;12 faubourg rivotte, 25000 besancon;16 faubourg rivotte, 25000 besancon;18 faubourg rivotte, 25000 besancon;10 faubourg rivotte, 25000 besancon
391;9 place du vieux marché, 76000 rouen;marché;1.088247;49.442586;9 place du vieux marche, 76000 rouen;11 place du vieux marche, 76000 rouen;12 place du vieux marche, 76000 rouen;7 place du vieux marche, 76000 rouen;17 place du vieux marche, 76000 rouen
390;34 rue saint-barthélémy, 77000 melun;saint-barthélémy;2.655885;48.541843;34 rue saint-barthélemy, 77000 melun;13 rue saint-barthélemy, 77000 melun;32 rue saint-barthélemy, 77000 melun;15 rue saint-barthélemy, 77000 melun;30 rue saint-barthélemy, 77000 melun
389;22, rue daubenton, 75005 paris;daubenton;2.35357;48.84138;22 rue daubenton, 75005 paris;24 rue daubenton, 75005 paris;19 rue daubenton, 75005 paris;26 rue daubenton, 75005 paris;17 rue daubenton, 75005 paris
388;231, avenue porte des alpes, 06670 le plan-du-var;alpes;7.19709;43.858335;180 avenue porte des alpes, 06670 undefined;197 avenue porte des alpes, 06670 undefined;201 avenue porte des alpes, 06670 undefined;173 avenue porte des alpes, 06670 undefined;185 avenue porte des alpes, 06670 undefined
387;129 cours de l'argonne, 33000 bordeaux;l'argonne;-0.576588;44.826882;129 cours de l'argonne, 33000 bordeaux;131 cours de l'argonne, 33000 bordeaux;133 cours de l'argonne, 33000 bordeaux;118 cours de l'argonne, 33000 bordeaux;122 cours de l'argonne, 33000 bordeaux
386;69, rue des dames, 75017 paris;dames;2.32057;48.883585;71 rue des dames, 75017 paris;62 rue des dames, 75017 paris;60 rue des dames, 75017 paris;69 rue des dames, 75017 paris;58 rue des dames, 75017 paris
385;5, place notre dame du mont, 13006 marseille;du mont;5.38383;43.292095;1 montée du canal, 13007 marseille;12 montée du canal, 13007 marseille;7 montée du canal, 13007 marseille;5 montée du canal, 13007 marseille;3 montée du canal, 13007 marseille
384;chemin du chêne, 69380 civrieux-d'azergues;chêne;4.706756;45.857884;14 chemin du chêne, 69380 civrieux-d'azergues;16 chemin du chêne, 69380 civrieux-d'azergues;10 chemin du chêne, 69380 civrieux-d'azergues;12 chemin du chêne, 69380 civrieux-d'azergues;3 chemin du chêne, 69380 civrieux-d'azergues
383;1, chemin de vilaine, 36500 buzançais;vilaine;1.42182;46.88862;1 chemin de vilaine, 36500 buzançais;3 chemin de vilaine, 36500 buzançais;7 chemin de vilaine, 36500 buzançais;5 chemin de vilaine, 36500 buzançais;2 chemin de vilaine, 36500 buzançais
382;108, boulevard du montparnasse, 75014 paris;montparnasse;2.32915;48.842074;105 boulevard du montparnasse, 75006 paris;108 boulevard du montparnasse, 75014 paris;103 boulevard du montparnasse, 75006 paris;106 boulevard du montparnasse, 75014 paris;113 boulevard du montparnasse, 75006 paris
381;81 rue léon frot, 75011 paris;léon frot;2.384327;48.857655;81 rue léon frot, 75011 paris;83 rue léon frot, 75011 paris;79 rue léon frot, 75011 paris;80 rue léon frot, 75011 paris;77 rue léon frot, 75011 paris
380;1 rue keller, 75011 paris;keller;2.376769;48.853531;1 rue keller, 75011 paris;4 rue keller, 75011 paris;2 rue keller, 75011 paris;3 rue keller, 75011 paris;5 rue keller, 75011 paris
379;80b rue de la république, 13400 aubagne;république;5.57125;43.290094;80 rue de la république, 13400 aubagne en provence;82 rue de la république, 13400 aubagne en provence;89 rue de la république, 13400 aubagne en provence;84 rue de la république, 13400 aubagne en provence;87 rue de la république, 13400 aubagne en provence
378;16 rue des blanchers, 31000 toulouse;blanchers;1.438053;43.602406;16 rue des blanchers, 31000 toulouse;14 rue des blanchers, 31000 toulouse;17 rue des blanchers, 31000 toulouse;18 rue des blanchers, 31000 toulouse;15 rue des blanchers, 31000 toulouse
377;4 rue des brioleurs, 14130 saint-gatien-des-bois;brioleurs;0.18995;49.347255;4 rue des brioleurs, 14130 saint-gatien-des-bois;3 rue des brioleurs, 14130 saint-gatien-des-bois;2 rue des brioleurs, 14130 saint-gatien-des-bois;1 rue des brioleurs, 14130 saint-gatien-des-bois;6 rue des brioleurs, 14130 saint-gatien-des-bois
376;13 place du concert, 59800 lille;concert;3.060739;50.642159;13 place du concert, 59800 lille;11 place du concert, 59800 lille;9 place du concert, 59800 lille;15 place du concert, 59800 lille;7 place du concert, 59800 lille
375;5 rue du maréchal juin, 67000 strasbourg;maréchal juin;7.760419;48.578441;3 rue du maréchal juin, 67000 strasbourg;5 rue du maréchal juin, 67000 strasbourg;7 rue du maréchal juin, 67000 strasbourg;11 rue du maréchal juin, 67000 strasbourg;14 rue du maréchal juin, 67000 strasbourg
374;102 avenue des nations, 57970 yutz;nations;6.195678;49.361683;102 avenue des nations, 57970 yutz;104 avenue des nations, 57970 yutz;101 avenue des nations, 57970 yutz;100 avenue des nations, 57970 yutz;106 avenue des nations, 57970 yutz
373;874, promenade charles de gaulle, 83140 six-fours-les-plages;gaulle;5.84272;43.093284;12 promenade général charles de gaulle, 83140 six-fours-les-plages;40 promenade général charles de gaulle, 83140 six-fours-les-plages;56 promenade général charles de gaulle, 83140 six-fours-les-plages;70 promenade général charles de gaulle, 83140 six-fours-les-plages;92 promenade général charles de gaulle, 83140 six-fours-les-plages
372;1, rue montesquieu, 44000 nantes;montesquieu;-1.56573;47.213067;1 rue montesquieu, 44000 nantes;4 rue montesquieu, 44000 nantes;6 rue montesquieu, 44000 nantes;8 rue montesquieu, 44000 nantes;4 rue charles de montesquieu, 44600 saint-nazaire
371;161 rue du levant, 30420 calvisson;levant;4.201929;43.78261;161 rue du levant, 30420 calvisson;151 rue du levant, 30420 calvisson;179 rue du levant, 30420 calvisson;104 rue du levant, 30420 calvisson;56 rue du levant, 30420 calvisson
370;2622 rue de lille, 59262 sainghin-en-mélantois;lille;3.153434;50.591613;2622 rue de lille, 59262 villeneuve-d'ascq;2693 rue de lille, 59262 villeneuve-d'ascq;2390 rue de lille, 59262 undefined;2370 rue de lille, 59262 undefined;2350 rue de lille, 59262 undefined
369;18, boulevard aristide briand, 92150 suresnes;briand;2.20246;48.863197;15 boulevard aristide briand, 92150 suresnes;18 boulevard aristide briand, 92150 suresnes;13 boulevard aristide briand, 92150 suresnes;16 boulevard aristide briand, 92150 suresnes;11 boulevard aristide briand, 92150 suresnes
368;6, rue papillon, 75009 paris;papillon;2.34772;48.87615;6 rue papillon, 75009 paris;8 rue papillon, 75009 paris;3 rue papillon, 75009 paris;4 rue papillon, 75009 paris;10 rue papillon, 75009 paris
367;13, rue maréchal joffre, 13100 aix-en-provence;joffre;5.4532;43.526823;13 rue maréchal joffre, 13100 aix-en-provence;15 rue maréchal joffre, 13100 aix-en-provence;18 rue maréchal joffre, 13100 aix-en-provence;11 rue maréchal joffre, 13100 aix-en-provence;16 rue maréchal joffre, 13100 aix-en-provence
366;173, boulevard saint-germain, 75006 paris;saint-germain;2.33071;48.85425;173 boulevard saint-germain, 75006 paris;175 boulevard saint-germain, 75006 paris;171 boulevard saint-germain, 75006 paris;186 boulevard saint-germain, 75006 paris;169 boulevard saint-germain, 75006 paris
365;148 boulevard jean jaurès, 78800 houilles;jaurès;2.203623;48.922261;148 boulevard jean jaurès, 78800 houilles;165 boulevard jean jaurès, 78800 houilles;150 boulevard jean jaurès, 78800 houilles;167 boulevard jean jaurès, 78800 houilles;163 boulevard jean jaurès, 78800 houilles
364;158 rue de bourgogne, 45000 orléans;bourgogne;1.911912;47.90053;158 rue de bourgogne, 45000 orleans;160 rue de bourgogne, 45000 orleans;156 rue de bourgogne, 45000 orleans;162 rue de bourgogne, 45000 orleans;154 rue de bourgogne, 45000 orleans
363;6 avenue charles de gaulle, 17300 rochefort;gaulle;-0.960147;45.935139;6 avenue charles de gaulle, 17300 rochefort;8 avenue charles de gaulle, 17300 rochefort;10 avenue charles de gaulle, 17300 rochefort;35 avenue charles de gaulle, 17300 rochefort;33 avenue charles de gaulle, 17300 rochefort
361;2 boulevard de la république, 92210 saint-cloud;république;2.207511;48.842784;2 boulevard de la république, 92210 saint-cloud;4 boulevard de la république, 92210 saint-cloud;6 boulevard de la république, 92210 saint-cloud;30 boulevard de la république, 92210 saint-cloud;3 boulevard de la république, 92210 saint-cloud
362;212 bis boulevard pereire, 75017 paris;pereire;2.286917;48.879743;212 boulevard pereire, 75017 paris;210 boulevard pereire, 75017 paris;237 boulevard pereire, 75017 paris;235 boulevard pereire, 75017 paris;241 boulevard pereire, 75017 paris
360;13 rue des filatiers, 31000 toulouse;filatiers;1.44412;43.598372;13 rue des filatiers, 31000 toulouse;15 rue des filatiers, 31000 toulouse;16 rue des filatiers, 31000 toulouse;11 rue des filatiers, 31000 toulouse;14 rue des filatiers, 31000 toulouse
359;51 rue de merlan, 93130 noisy-le-sec;merlan;2.466011;48.89055;51 rue de merlan, 93130 noisy-le-sec;70 rue de merlan, 93130 noisy-le-sec;68 rue de merlan, 93130 noisy-le-sec;72 rue de merlan, 93130 noisy-le-sec;53 rue de merlan, 93130 noisy-le-sec
358;69, rue de croulebarbe, 75013 paris;croulebarbe;2.34855;48.830818;69 rue de croulebarbe, 75013 paris;71 rue de croulebarbe, 75013 paris;67 rue de croulebarbe, 75013 paris;65 rue de croulebarbe, 75013 paris;63 rue de croulebarbe, 75013 paris
357;87 rue jean de la fontaine, 75016 paris;fontaine;2.265481;48.848283;85 rue jean de la fontaine, 75016 paris;83 rue jean de la fontaine, 75016 paris;87 rue jean de la fontaine, 75016 paris;89 rue jean de la fontaine, 75016 paris;81 rue jean de la fontaine, 75016 paris
356;34, rue etienne d'orves, 93310 le pré-saint-gervais;d'orves;2.40058;48.885755;35 rue d'estienne d'orves, 93310 le pré-saint-gervais;34 rue d'estienne d'orves, 93310 le pré-saint-gervais;36 rue d'estienne d'orves, 93310 le pré-saint-gervais;32 rue d'estienne d'orves, 93310 le pré-saint-gervais;38 rue d'estienne d'orves, 93310 le pré-saint-gervais
355;561, route du bout fleuri, 76450 paluel;fleuri;0.64924;49.844979;656 route du bout fleuri, 76450 undefined;561 route du bout fleuri, 76450 undefined;772 route du bout fleuri, 76450 undefined;745 route du bout fleuri, 76450 undefined;812 route du bout fleuri, 76450 undefined
353;20 place bellecour, 69002 lyon;bellecour;4.83308;45.756433;20 place bellecour, 69002 lyon;21 place bellecour, 69002 lyon;22 place bellecour, 69002 lyon;23 place bellecour, 69002 lyon;24 place bellecour, 69002 lyon
354;3 avenue de bohlen, 69120 vaulx-en-velin;bohlen;4.920526;45.764968;3 avenue de bohlen, 69120 vaulx-en-velin;5 avenue de bohlen, 69120 vaulx-en-velin;7 avenue de bohlen, 69120 vaulx-en-velin;2 avenue de bohlen, 69120 vaulx-en-velin;1 avenue de bohlen, 69120 vaulx-en-velin
352;219 boulevard de tournai, 59650 villeneuve-d'ascq;tournai;3.132856;50.61312;231 boulevard de tournai, 59650 villeneuve-d'ascq;217 boulevard de tournai, 59650 villeneuve-d'ascq;237 boulevard de tournai, 59650 villeneuve-d'ascq;239 boulevard de tournai, 59650 villeneuve-d'ascq;235 boulevard de tournai, 59650 villeneuve-d'ascq
351;3, place sainte catherine, 59000 lille;catherine;3.05694;50.639206;3 rue sainte-catherine, 59800 lille;4 rue sainte-catherine, 59800 lille;21 terrasse sainte-catherine, 59800 lille;5 rue sainte-catherine, 59800 lille;7 rue sainte-catherine, 59800 lille
349;34 rue de verdun, 92150 suresnes;verdun;2.22908;48.872545;34 rue de verdun, 92150 suresnes;36 rue de verdun, 92150 suresnes;35 rue de verdun, 92150 suresnes;33 rue de verdun, 92150 suresnes;29 rue de verdun, 92150 suresnes
350;62 rue breteuil, 13006 marseille;breteuil;5.376567;43.288334;62 rue breteuil, 13006 marseille;60 rue breteuil, 13006 marseille;64 rue breteuil, 13006 marseille;87 rue breteuil, 13006 marseille;85 rue breteuil, 13006 marseille
348;1 rue alfred nobel, 66470 sainte-marie;nobel;3.024284;42.731302;1 rue alfred nobel, 66470 sainte-marie;3 rue alfred nobel, 66470 sainte-marie;17 rue alfred nobel, 66470 sainte-marie;7 rue alfred nobel, 66470 sainte-marie;6 rue alfred nobel, 66470 sainte-marie
347;10, cours gambetta, 65000 tarbes;gambetta;0.07348;43.232091;8 cours gambetta, 65000 tarbes;10 cours gambetta, 65000 tarbes;1 cours gambetta, 65000 tarbes;12 cours gambetta, 65000 tarbes;3 cours gambetta, 65000 tarbes
346;3, rue du pas saint-georges, 33000 bordeaux;saint-georges;-0.571895;44.840264;6 rue du passage saint-georges, 33000 bordeaux;4 rue du passage saint-georges, 33000 bordeaux;3 rue du passage saint-georges, 33000 bordeaux;1 rue du passage saint-georges, 33000 bordeaux;2 rue du passage saint-georges, 33000 bordeaux
345;rue des frênes, 45700 pannes;frênes;2.668285;47.992004;325 rue des frênes, 45700 undefined;75 rue des frênes, 45700 undefined;425 rue des frênes, 45700 undefined;365 rue des frênes, 45700 undefined;420 rue des frênes, 45700 undefined
344;73, avenue marceau, 75016 paris;marceau;2.29714;48.871023;71 avenue marceau, 75016 paris;73 avenue marceau, 75016 paris;75 avenue marceau, 75016 paris;70 avenue marceau, 75008 paris;72 avenue marceau, 75008 paris
343;35, rue du loup, 33000 bordeaux;du loup;-0.57304;44.837924;31 rue du loup, 33000 bordeaux;33 rue du loup, 33000 bordeaux;29 rue du loup, 33000 bordeaux;35 rue du loup, 33000 bordeaux;27 rue du loup, 33000 bordeaux
342;32, place de provence, 06470 guillaumes;provence;6.85346;44.089919;5052 place de provence, 06470 undefined;32 place de provence, 06470 undefined;8 place de provence, 06470 undefined;9 place de provence, 06470 undefined;38 place de provence, 06470 undefined
341;52 avenue de la porte de villiers, 92300 levallois-perret;villiers;2.284357;48.886277;52 avenue de la porte de villiers, 92300 levallois-perret;54 avenue de la porte de villiers, 92300 levallois-perret;50 avenue de la porte de villiers, 92300 levallois-perret;48 avenue de la porte de villiers, 92300 levallois-perret;46 avenue de la porte de villiers, 92300 levallois-perret
340;138 quai du port, 13002 marseille;du port;5.367486;43.295949;140 quai du port, 13002 marseille;142 quai du port, 13002 marseille;144 quai du port, 13002 marseille;136 quai du port, 13002 marseille;138 quai du port, 13002 marseille
339;2, place de l'hôpital, 69002 lyon;l'hôpital;4.83609;45.75911;35 place de l'hôpital, 69002 lyon;3 place de l'hôpital, 69002 lyon;2 place de l'hôpital, 69002 lyon;1 place de l'hôpital, 69002 lyon;81 chemin de l'hôpital, 69280 sainte-consorce
338;30 avenue du maréchal de lattre de tassigny, 33600 pessac;tassigny;-0.69386;44.78043;32 avenue du maréchal de lattre de tassigny, 33600 pessac;12 avenue du maréchal de lattre de tassigny, 33610 cestas;11 avenue du maréchal de lattre de tassigny, 33610 cestas;13 avenue du maréchal de lattre de tassigny, 33610 cestas;10 avenue du maréchal de lattre de tassigny, 33610 cestas
337;108, avenue de nice, 06800 cagnes-sur-mer;de nice;7.17726;43.660584;9023 avenue du cap-de-nice, 06300 nice;9019 avenue du cap-de-nice, 06300 nice;11 avenue du cap-de-nice, 06300 nice;9001 avenue du cap-de-nice, 06300 nice;9020 avenue du cap-de-nice, 06300 nice
336;2, rue des trois bornes, 75011 paris;bornes;2.37221;48.866484;2 rue des 3 bornes, 75011 paris;13 rue des 3 bornes, 75011 paris;1 cité des 3 bornes, 75011 paris;17 rue des 3 bornes, 75011 paris;11 rue des 3 bornes, 75011 paris
335;22, avenue puvis de chavannes, 92400 courbevoie;chavannes;2.23399;48.898641;16 avenue puvis de chavannes, 92400 courbevoie;18 avenue puvis de chavannes, 92400 courbevoie;9 avenue puvis de chavannes, 92400 courbevoie;14 avenue puvis de chavannes, 92400 courbevoie;7 avenue puvis de chavannes, 92400 courbevoie
334;33, rue de la chapelle saint martin, 44115 haute-goulaine;martin;-1.42972;47.19058;22 rue de la chapelle saint-martin, 44115 undefined;24 rue de la chapelle saint-martin, 44115 undefined;16 rue de la chapelle saint-martin, 44115 undefined;20 rue de la chapelle saint-martin, 44115 undefined;25 rue de la chapelle saint-martin, 44115 undefined
333;1 rue du pontin, 06300 nice;pontin;7.274891;43.697323;1 rue du pontin, 06300 nice;2 rue du pontin, 06300 nice;4 rue du pontin, 06300 nice;3 rue du pontin, 06300 nice;5 rue du pontin, 06300 nice
332;115 rue jules ferry, 22000 saint-brieuc;ferry;-2.769785;48.5003;115 rue jules ferry, 22000 saint-brieuc;117 rue jules ferry, 22000 saint-brieuc;119 rue jules ferry, 22000 saint-brieuc;121 rue jules ferry, 22000 saint-brieuc;92 rue jules ferry, 22000 saint-brieuc
330;36 rue saint-georges, 35000 rennes;saint-georges;-1.675735;48.11187;31 rue saint-georges, 35000 rennes;33 rue saint-georges, 35000 rennes;36 rue saint-georges, 35000 rennes;29 rue saint-georges, 35000 rennes;35 rue saint-georges, 35000 rennes
331;37 boulevard du général leclerc, 59100 roubaix;leclerc;3.177158;50.690159;9001 boulevard du général leclerc, 59100 roubaix;37 boulevard du général leclerc, 59100 roubaix;39 boulevard du général leclerc, 59100 roubaix;43 boulevard du général leclerc, 59100 roubaix;9003 boulevard du général leclerc, 59100 roubaix
328;186 avenue charles de gaulle, 92200 neuilly-sur-seine;gaulle;2.258149;48.885863;184 avenue charles de gaulle, 92200 neuilly-sur-seine;186 avenue charles de gaulle, 92200 neuilly-sur-seine;188 avenue charles de gaulle, 92200 neuilly-sur-seine;182 avenue charles de gaulle, 92200 neuilly-sur-seine;180 avenue charles de gaulle, 92200 neuilly-sur-seine
329;9 rue du grand pré, 84160 lourmarin;grand pré;5.36403;43.764959;12 cantonnade du grand pré, 84160 lourmarin;10 cantonnade du grand pré, 84160 lourmarin;4 cantonnade du grand pré, 84160 lourmarin;5223 rue du grand pré, 84160 lourmarin;5222 rue du grand pré, 84160 lourmarin
327;26 rue pierre brossolette, 95270 asnières-sur-oise;brossolette;2.35499;49.132337;26 rue pierre brossolette, 95270 viarmes;17 rue pierre brossolette, 95270 viarmes;19 rue pierre brossolette, 95270 viarmes;24 rue pierre brossolette, 95270 viarmes;28 rue pierre brossolette, 95270 viarmes
326;domaine de massane, 34670 baillargues;massane;4.00499;43.649224;8 boulevard de massane, 34670 baillargues;12 boulevard de massane, 34670 baillargues;6 boulevard de massane, 34670 baillargues;10 boulevard de massane, 34670 baillargues;4 boulevard de massane, 34670 baillargues
324;34, place aux huiles, 13001 marseille;huiles;5.37182;43.292459;34 place aux huiles, 13001 marseille;32 place aux huiles, 13001 marseille;42 place aux huiles, 13001 marseille;44 place aux huiles, 13001 marseille;40 place aux huiles, 13001 marseille
325;13 rue de la fontaine de chalet, 15500 massiac;chalet;3.201414;45.273901;11 rue de la fontaine de chalet, 15500 undefined;9 rue de la fontaine de chalet, 15500 undefined;8 rue de la fontaine de chalet, 15500 undefined;10 rue de la fontaine de chalet, 15500 undefined;13 rue de la fontaine de chalet, 15500 undefined
323;4 rue saint-laurent, 75010 paris;saint-laurent;2.358675;48.875589;4 rue saint-laurent, 75010 paris;6 rue saint-laurent, 75010 paris;5 rue saint-laurent, 75010 paris;3 rue saint-laurent, 75010 paris;8 rue saint-laurent, 75010 paris
322;15 rue letort, 75018 paris;letort;2.342974;48.894362;15 rue letort, 75018 paris;17 rue letort, 75018 paris;13 rue letort, 75018 paris;19 rue letort, 75018 paris;16 rue letort, 75018 paris
320;33, avenue de la mouscane, 82700 montech;mouscane;1.24139;43.96255;5 avenue de la mouscane, 82700 montech;7 avenue de la mouscane, 82700 montech;10 avenue de la mouscane, 82700 montech;6 avenue de la mouscane, 82700 montech;24 avenue de la mouscane, 82700 montech
321;66 rue grande, 77250 moret-sur-loing;grande;2.818394;48.37264;66 rue grande (moret-sur-loing), 77250 moret-sur-loing;68 rue grande (moret-sur-loing), 77250 moret-sur-loing;59 rue grande (moret-sur-loing), 77250 moret-sur-loing;70 rue grande (moret-sur-loing), 77250 moret-sur-loing;57 rue grande (moret-sur-loing), 77250 moret-sur-loing
319;13, rue louison bobet, 64200 biarritz;bobet;-1.55442;43.48789;13 rue louison bobet, 64200 biarritz;11 rue louison bobet, 64200 biarritz;9 rue louison bobet, 64200 biarritz;7 rue louison bobet, 64200 biarritz;16 rue louison bobet, 64200 biarritz
318;allée jacques duclos, 24750 boulazac;duclos;0.77687;45.1849;11 chemin de duclos, 47110 undefined;9 chemin de duclos, 47110 undefined;0 duclos, 47110 undefined;13 chemin de duclos, 47110 undefined;20 chemin de duclos, 47110 undefined
317;16 rue des archives, 75004 paris;archives;2.354805;48.857691;16 rue des archives, 75004 paris;14 rue des archives, 75004 paris;18 rue des archives, 75004 paris;12 rue des archives, 75004 paris;22 rue des archives, 75004 paris
316;2 rue fénelon, 71700 tournus;fénelon;4.909268;46.565144;6 rue fénelon, 71700 tournus;5 rue fénelon, 71700 tournus;4 rue fénelon, 71700 tournus;3 rue fénelon, 71700 tournus;1 rue fénelon, 71700 tournus
315;59, rue servan, 75011 paris;servan;2.3812;48.863854;62 rue servan, 75011 paris;71 rue servan, 75011 paris;67 rue servan, 75011 paris;60 rue servan, 75011 paris;65 rue servan, 75011 paris
314;119-121 avenue pierre brossolette, 92120 montrouge;brossolette;2.307448;48.81709;121 avenue pierre brossolette, 92120 malakoff;123 avenue pierre brossolette, 92120 malakoff;119 avenue pierre brossolette, 92120 malakoff;125 avenue pierre brossolette, 92120 malakoff;127 avenue pierre brossolette, 92120 malakoff
313;46 rue des vignoles, 75020 paris;vignoles;2.400697;48.854496;46 rue des vignoles, 75020 paris;48 rue des vignoles, 75020 paris;51 rue des vignoles, 75020 paris;53 rue des vignoles, 75020 paris;44 rue des vignoles, 75020 paris
312;place granet, 83210 belgentier;granet;6.00032;43.245275;5000 place édouard granet, 83210 belgentier;5133 place édouard granet, 83210 belgentier;9100 place édouard granet, 83210 belgentier;1 place édouard granet, 83210 belgentier;150 place édouard granet, 83210 belgentier
311;355 rue du centre aéré, 40990 saint-paul-lès-dax;centre aéré;-1.062589;43.728526;0 rue du centre aère, 40990 saint-paul-lès-dax;360 rue du centre aère, 40990 saint-paul-lès-dax;382 rue du centre aère, 40990 saint-paul-lès-dax;355 rue du centre aère, 40990 saint-paul-lès-dax;336 rue du centre aère, 40990 saint-paul-lès-dax
310;1 bis, rue des colonels renard, 75017 paris;renard;2.29093;48.877797;6 rue des colonels renard, 75017 paris;5 rue des colonels renard, 75017 paris;4 rue des colonels renard, 75017 paris;3 rue des colonels renard, 75017 paris;1 rue des colonels renard, 75017 paris
309;23, rue d'aguesseau, 92100 boulogne-billancourt;d'aguesseau;2.23643;48.844113;23 rue d'aguesseau, 92100 boulogne-billancourt;18 rue d'aguesseau, 92100 boulogne-billancourt;20 rue d'aguesseau, 92100 boulogne-billancourt;25 rue d'aguesseau, 92100 boulogne-billancourt;22 rue d'aguesseau, 92100 boulogne-billancourt
308;97, rue de charonne, 75011 paris;charonne;2.38345;48.85438;97 rue de charonne, 75011 paris;95 rue de charonne, 75011 paris;98 rue de charonne, 75011 paris;99 rue de charonne, 75011 paris;100 rue de charonne, 75011 paris
307;5 rue de la paix, 75002 paris;la paix;2.330524;48.868746;5 rue de la paix, 75002 paris;3 rue de la paix, 75002 paris;7 rue de la paix, 75002 paris;6 rue de la paix, 75002 paris;4 rue de la paix, 75002 paris
306;maison neuve 16410 vouzan, 16410 vouzan;vouzan;0.344284;45.582338;31 route de vouzan, 16380 undefined;29 route de vouzan, 16380 undefined;30 route de vouzan, 16380 undefined;28 route de vouzan, 16380 undefined;27 route de vouzan, 16380 undefined
305;83, rue laugier, 75017 paris;laugier;2.29114;48.885032;89 rue laugier, 75017 paris;90 rue laugier, 75017 paris;92 rue laugier, 75017 paris;87 rue laugier, 75017 paris;88 rue laugier, 75017 paris
304;25, montée cardinal decourtray, 69005 lyon;decourtray;4.82183;45.76157;23 montée cardinal decourtray, 69005 lyon;27 montée cardinal decourtray, 69005 lyon;10 montée cardinal decourtray, 69005 lyon;21 montée cardinal decourtray, 69005 lyon;6 montée cardinal decourtray, 69005 lyon
303;261, avenue gambetta, 75020 paris;gambetta;2.40653;48.876942;261 avenue gambetta, 75020 paris;259 avenue gambetta, 75020 paris;257 avenue gambetta, 75020 paris;255 avenue gambetta, 75020 paris;249 avenue gambetta, 75020 paris
302;6 rue du port, 51290 giffaumont-champaubert;du port;4.758944;48.552237;1 rue du port, 51290 undefined;8 rue du port, 51290 undefined;2 rue du port, 51290 undefined;9 rue du port, 51290 undefined;10 rue du port, 51290 undefined
301;3 rue montalembert, 75007 paris;montalembert;2.32778;48.856704;5 rue montalembert, 75007 paris;3 rue montalembert, 75007 paris;7 rue montalembert, 75007 paris;1 rue montalembert, 75007 paris;4 rue montalembert, 75007 paris
300;5, rue michelet, 21000 dijon;michelet;5.03553;47.321164;2 rue michelet, 21000 dijon;4 rue michelet, 21000 dijon;3 rue michelet, 21000 dijon;6 rue michelet, 21000 dijon;5 rue michelet, 21000 dijon
299;28, quai saint-jean, 41000 blois;saint-jean;1.34054;47.589062;30 quai saint-jean, 41000 blois;28 quai saint-jean, 41000 blois;9001 quai saint-jean, 41000 blois;0 quai saint-jean, 41000 blois;32 quai saint-jean, 41000 blois
298;1, rue du petit pont, 75005 paris;petit pont;2.34661;48.852801;6 place du petit pont, 75005 paris;4 place du petit pont, 75005 paris;1 rue du petit pont, 75005 paris;2 rue du petit pont, 75005 paris;3 rue du petit pont, 75005 paris
297;129, rue lauriston, 75016 paris;lauriston;2.28542;48.865432;122 rue lauriston, 75016 paris;129 rue lauriston, 75016 paris;120 rue lauriston, 75116 paris;120 rue lauriston, 75016 paris;127 rue lauriston, 75016 paris
296;5, avenue de saint-germain, 78600 maisons-laffitte;saint-germain;2.14287;48.944507;12 avenue de saint-germain, 78600 maisons-laffitte;14 avenue de saint-germain, 78600 maisons-laffitte;10 avenue de saint-germain, 78600 maisons-laffitte;27 avenue de saint-germain, 78600 maisons-laffitte;16 avenue de saint-germain, 78600 maisons-laffitte
295;place paul isnard, 06220 vallauris;isnard;7.05265;43.579648;78 rue des isnardons, 06250 mougins;87 rue des isnardons, 06250 mougins;68 rue des isnardons, 06250 mougins;55 rue des isnardons, 06250 mougins;60 rue des isnardons, 06250 mougins
294;9 place du général leclerc, 94120 fontenay-sous-bois;leclerc;2.471645;48.847224;7 place du général leclerc, 94120 fontenay-sous-bois;9 place du général leclerc, 94120 fontenay-sous-bois;4 place du général leclerc, 94120 fontenay-sous-bois;2 place du général leclerc, 94120 fontenay-sous-bois;6 place du général leclerc, 94120 fontenay-sous-bois
293;32 cours de la république, 33390 blaye;république;-0.661349;45.129652;31 cours de la république, 33390 blaye;32 cours de la république, 33390 blaye;30 cours de la république, 33390 blaye;33 cours de la république, 33390 blaye;29 cours de la république, 33390 blaye
292;14 rue d'alexandrie, 75002 paris;d'alexandrie;2.350382;48.868306;14 rue d'alexandrie, 75002 paris;13 rue d'alexandrie, 75002 paris;11 rue d'alexandrie, 75002 paris;12 rue d'alexandrie, 75002 paris;10 rue d'alexandrie, 75002 paris
291;4 rue des vanniers, 08140 douzy;vanniers;5.043037;49.669879;2 rue des vanniers, 08140 douzy;5560 rue des vanniers, 08140 douzy;6 rue des vanniers, 08140 douzy;8 rue des vanniers, 08140 douzy;10 rue des vanniers, 08140 douzy
290;215 avenue de la californie, 06200 nice;californie;7.230342;43.680369;221 avenue de la californie, 06200 nice;223 avenue de la californie, 06200 nice;219 avenue de la californie, 06200 nice;225 avenue de la californie, 06200 nice;217 avenue de la californie, 06200 nice
289;22 place du forum, 51100 reims;forum;4.034794;49.25655;20 place du forum, 51100 reims;22 place du forum, 51100 reims;18 place du forum, 51100 reims;17 place du forum, 51100 reims;16 place du forum, 51100 reims
288;25 rue bergère, 75009 paris;bergère;2.344624;48.872417;25 rue bergère, 75009 paris;26 rue bergère, 75009 paris;23 rue bergère, 75009 paris;24 rue bergère, 75009 paris;27 rue bergère, 75009 paris
287;101 rue de colombes, 92400 courbevoie;colombes;2.25517;48.904033;99 rue de colombes, 92400 courbevoie;101 rue de colombes, 92400 courbevoie;103 rue de colombes, 92400 courbevoie;107 rue de colombes, 92400 courbevoie;109 rue de colombes, 92400 courbevoie
286;58, avenue des gobelins, 75013 paris;gobelins;2.35393;48.833583;58 avenue des gobelins, 75013 paris;60 avenue des gobelins, 75013 paris;56 avenue des gobelins, 75013 paris;62 avenue des gobelins, 75013 paris;69 avenue des gobelins, 75013 paris
285;10 cours julien, 13001 marseille;julien;5.382062;43.295709;10 cours julien, 13006 marseille;12 cours julien, 13006 marseille;6 cours julien, 13006 marseille;1 cours julien, 13001 marseille;16 cours julien, 13006 marseille
284;6, place garibaldi, 06300 nice;garibaldi;7.279899;43.70149;6 place garibaldi, 06300 nice;8 place garibaldi, 06300 nice;4 place garibaldi, 06300 nice;2 place garibaldi, 06300 nice;10 place garibaldi, 06300 nice
283;6 place de la libération, 95650 génicourt;libération;2.068097;49.089021;6 place de la libération, 95650 osny;2 place de la libération, 95650 osny;5 place de la libération, 95650 osny;1 place de la libération, 95650 osny;4 place de la libération, 95650 osny
282;66 avenue du général leclerc, 31340 villemur-sur-tarn;leclerc;1.49726;43.851782;66 avenue du général leclerc, 31340 undefined;67 avenue du général leclerc, 31340 undefined;65 avenue du général leclerc, 31340 villemur-sur-tarn;61 avenue du général leclerc, 31340 villemur-sur-tarn;63 avenue du général leclerc, 31340 villemur-sur-tarn
281;159 rue de crimée, 75019 paris;crimée;2.379013;48.888511;161 rue de crimée, 75019 paris;157 rue de crimée, 75019 paris;163 rue de crimée, 75019 paris;159 rue de crimée, 75019 paris;158 rue de crimée, 75019 paris
280;34, rue d'estienne d'orves, 93310 le pré-saint-gervais;d'orves;2.40063;48.88585;34 rue d'estienne d'orves, 93310 le pré-saint-gervais;36 rue d'estienne d'orves, 93310 le pré-saint-gervais;32 rue d'estienne d'orves, 93310 le pré-saint-gervais;35 rue d'estienne d'orves, 93310 le pré-saint-gervais;38 rue d'estienne d'orves, 93310 le pré-saint-gervais
279;3 boulevard victor, 75015 paris;victor;2.280343;48.835794;3 boulevard victor, 75015 paris;20 boulevard victor, 75015 paris;18 boulevard victor, 75015 paris;24 boulevard victor, 75015 paris;16 boulevard victor, 75015 paris
278;rue des lices, 49100 angers;lices;-0.554158;47.468504;20 rue des lices, 49100 angers;17 rue des lices, 49100 angers;15 rue des lices, 49100 angers;22 rue des lices, 49100 angers;19 rue des lices, 49100 angers
277;118 rue des moines, 75017 paris;moines;2.32345;48.893183;118 rue des moines, 75017 paris;120 rue des moines, 75017 paris;116 rue des moines, 75017 paris;113 rue des moines, 75017 paris;122 rue des moines, 75017 paris
276;8 rue gioffredo, 06000 nice;gioffredo;7.276408;43.702325;10 rue gioffredo, 06000 nice;8 rue gioffredo, 06000 nice;9 rue gioffredo, 06000 nice;7 rue gioffredo, 06000 nice;5 rue gioffredo, 06000 nice
275;48 rue caulaincourt, 75018 paris;caulaincourt;2.334805;48.888987;48 rue caulaincourt, 75018 paris;46 rue caulaincourt, 75018 paris;50 rue caulaincourt, 75018 paris;47 rue caulaincourt, 75018 paris;44 rue caulaincourt, 75018 paris
274;97, rue des dames, 75017 paris;dames;2.31658;48.883848;100 rue des dames, 75017 paris;98 rue des dames, 75017 paris;102 rue des dames, 75017 paris;96 rue des dames, 75017 paris;104 rue des dames, 75017 paris
273;20 rue du doyen, 62200 boulogne-sur-mer;doyen;1.606881;50.722715;20 rue du doyen, 62200 boulogne-sur-mer;18 rue du doyen, 62200 boulogne-sur-mer;11 rue du doyen, 62200 boulogne-sur-mer;16 rue du doyen, 62200 boulogne-sur-mer;7 rue du doyen, 62200 boulogne-sur-mer
272;26 place de l'horloge, 84000 avignon;l'horloge;4.806385;43.949698;26 place de l'horloge, 84000 avignon;28 place de l'horloge, 84000 avignon;30 place de l'horloge, 84000 avignon;24 place de l'horloge, 84000 avignon;22 place de l'horloge, 84000 avignon
271;4 rue de la gare, 68500 guebwiller;la gare;7.216289;47.907086;4 rue de la gare, 68500 soultz-haut-rhin;6 rue de la gare, 68500 soultz-haut-rhin;1 rue de la gare, 68500 soultz-haut-rhin;8 rue de la gare, 68500 soultz-haut-rhin;7 rue de la gare, 68500 soultz-haut-rhin
270;5 route de la corniche, 78270 rolleboise;corniche;1.609894;49.022543;5 route de la corniche, 78270 freneuse;2 route de la corniche, 78270 freneuse;20 route de la corniche, 78270 freneuse;5600 route de la corniche, 78270 freneuse;5081 route de la corniche, 78270 freneuse
269;200 route de blagnac, 31200 toulouse;blagnac;1.402817;43.62553;200 route de blagnac, 31200 undefined;163 route de blagnac, 31200 undefined;157 route de blagnac, 31200 toulouse;151 route de blagnac, 31200 toulouse;149 route de blagnac, 31200 toulouse
268;2, rue françois mouthon, 75015 paris;mouthon;2.29145;48.83911;2 rue françois mouthon, 75015 paris;1 rue françois mouthon, 75015 paris;4 rue françois mouthon, 75015 paris;3 rue françois mouthon, 75015 paris;6 rue françois mouthon, 75015 paris
267;45 avenue de la libération, 42120 le coteau;libération;4.084272;46.029552;45 avenue de la libération, 42120 le coteau;47 avenue de la libération, 42120 le coteau;43 avenue de la libération, 42120 le coteau;49 avenue de la libération, 42120 le coteau;50 avenue de la libération, 42120 le coteau
266;46, rue jules simon, 56100 lorient;simon;-3.36728;47.757535;47 rue jules simon, 56100 lorient;46 rue jules simon, 56100 lorient;49 rue jules simon, 56100 lorient;48 rue jules simon, 56100 lorient;42 rue jules simon, 56100 lorient
265;16 rue de la buffa, 06000 nice;buffa;7.262222;43.697266;16 rue de la buffa, 06000 nice;14 rue de la buffa, 06000 nice;18 rue de la buffa, 06000 nice;25 rue de la buffa, 06000 nice;23 rue de la buffa, 06000 nice
264;paris, null paris;paris;2.307314;48.865784;1 port de paris - solferino, 75007 paris;1 rue de paris, 92110 clichy;3 rue de paris, 92110 clichy;2 rue de paris, 92110 clichy;5 rue de paris, 92110 clichy
263;192, avenue victor-hugo, 75016 paris;victor-hugo;2.27428;48.865104;152 rue victor-hugo, undefined gatineau;55 rue victor-hugo, undefined gatineau;16 rue victor-hugo, undefined gatineau;8 rue victor-hugo, undefined gatineau;191 rue victor-hugo, undefined gatineau
261;119 route de vienne, 69008 lyon;vienne;4.852701;45.737241;119 route de vienne, 69008 lyon;121 route de vienne, 69008 lyon;117 route de vienne, 69008 lyon;114 route de vienne, 69008 lyon;123 route de vienne, 69008 lyon
262;49 rue de turenne, 75003 paris;turenne;2.364331;48.858063;49 rue de turenne, 75003 paris;48 rue de turenne, 75003 paris;47 rue de turenne, 75003 paris;51 rue de turenne, 75003 paris;46 rue de turenne, 75003 paris
259;70 avenue du bourgailh, 33600 pessac;bourgailh;-0.66275;44.80928;70 avenue du bourgailh, 33600 pessac;71 avenue du bourgailh, 33600 pessac;74 avenue du bourgailh, 33600 pessac;68 avenue du bourgailh, 33600 pessac;66 avenue du bourgailh, 33600 pessac
260;4-6 place emile cresp, 92120 montrouge;cresp;2.319183;48.819182;2 place émile cresp, 92120 montrouge;10 place émile cresp, 92120 montrouge;6 place émile cresp, 92120 montrouge;1 place émile cresp, 92120 montrouge;4 place émile cresp, 92120 montrouge
258;131 boulevard victor hugo, 93400 saint-ouen;victor hugo;2.323479;48.905237;131 boulevard victor hugo, 93400 saint-ouen;132 boulevard victor hugo, 93400 saint-ouen;133 boulevard victor hugo, 93400 saint-ouen;135 boulevard victor hugo, 93400 saint-ouen;137 boulevard victor hugo, 93400 saint-ouen
257;15 rue corneille, 83000 toulon;corneille;5.933576;43.123891;14 rue corneille, 83000 toulon;15 rue corneille, 83000 toulon;19 rue corneille, 83000 toulon;8 rue corneille, 83000 toulon;9 rue corneille, 83000 toulon
256;9 boulevard de port-royal, 75013 paris;port-royal;2.349981;48.836791;7 boulevard de port-royal, 75013 paris;9 boulevard de port-royal, 75013 paris;5 boulevard de port-royal, 75013 paris;11 boulevard de port-royal, 75013 paris;3 boulevard de port-royal, 75013 paris
255;9 avenue emile evellier, 69290 grézieu-la-varenne;evellier;4.692534;45.748013;12 avenue émile evellier, 69290 grézieu-la-varenne;9 avenue émile evellier, 69290 grézieu-la-varenne;7 avenue émile evellier, 69290 grézieu-la-varenne;14 avenue émile evellier, 69290 grézieu-la-varenne;10 avenue émile evellier, 69290 grézieu-la-varenne
254;58 rue franklin, 69002 lyon;franklin;4.831811;45.751423;58 rue franklin, 69002 lyon;56 rue franklin, 69002 lyon;54 rue franklin, 69002 lyon;57 rue franklin, 69002 lyon;59 rue franklin, 69002 lyon
253;quartier la robéyère, 05200 embrun;robéyère;6.48814;44.560495;6 rue de la robeyère, 05200 embrun;2 rue de la robeyère, 05200 embrun;27 la robeyère, 05200 embrun;9001 la robeyère, 05200 embrun;6142 la robeyère, 05200 embrun
251;1 rue villedo, 75001 paris;villedo;2.336917;48.865974;4 rue villedo, 75001 paris;1 rue villedo, 75001 paris;3 rue villedo, 75001 paris;5 rue villedo, 75001 paris;6 rue villedo, 75001 paris
252;z.a. du roubian, 13150 tarascon;roubian;4.68503;43.790084;470 chemin de roubian, 84240 undefined;321 chemin de roubian, 84240 undefined;170 chemin de roubian, 84240 undefined;151 chemin de roubian, 84240 undefined;126 chemin de roubian, 84240 undefined
250;46 rue des hauts pavés, 44000 nantes;pavés;-1.565387;47.224954;46 rue des hauts pavés, 44000 nantes;81 rue des hauts pavés, 44000 nantes;77 rue des hauts pavés, 44000 nantes;75 rue des hauts pavés, 44000 nantes;59 rue des hauts pavés, 44000 nantes
249;10, rue marius jacotot, 92800 puteaux;jacotot;2.24023;48.883321;5 rue marius jacotot, 92800 puteaux;8 rue marius jacotot, 92800 puteaux;10 rue marius jacotot, 92800 puteaux;3 rue marius jacotot, 92800 puteaux;12 rue marius jacotot, 92800 puteaux
248;32 avenue des carrés, 74940 annecy-le-vieux;carrés;6.142532;45.913187;31 avenue des carres, 74940 annecy-le-vieux;29 avenue des carres, 74940 annecy-le-vieux;27 avenue des carres, 74940 annecy-le-vieux;26 avenue des carres, 74940 annecy-le-vieux;24 avenue des carres, 74940 annecy-le-vieux
247;41, quai pierre scize, 69009 lyon;scize;4.81636;45.766687;20 quai pierre scize, 69009 lyon;21 quai pierre scize, 69009 lyon;19 quai pierre scize, 69009 lyon;22 quai pierre scize, 69009 lyon;18 quai pierre scize, 69009 lyon
246;7 rue mathieu, 71000 mâcon;mathieu;4.830157;46.306418;7 rue mathieu, 71000 mâcon;9 rue mathieu, 71000 mâcon;11 rue mathieu, 71000 mâcon;10 rue mathieu, 71000 mâcon;13 rue mathieu, 71000 mâcon
245;146, avenue de la division leclerc, 95160 montmorency;leclerc;2.31045;48.97258;146 avenue de la division leclerc, 95160 enghien-les-bains;113 avenue de la division leclerc, 95880 enghien-les-bains;111 avenue de la division leclerc, 95880 enghien-les-bains;140 avenue de la division leclerc, 95160 enghien-les-bains;144 avenue de la division leclerc, 95160 enghien-les-bains
243;499 rue saint-bernard, 74290 menthon-saint-bernard;saint-bernard;6.196585;45.859113;499 rue saint-bernard, 74290 menthon-saint-bernard;489 rue saint-bernard, 74290 menthon-saint-bernard;500 rue saint-bernard, 74290 menthon-saint-bernard;580 rue saint-bernard, 74290 menthon-saint-bernard;509 rue saint-bernard, 74290 menthon-saint-bernard
244;1 place turenne, 68230 turckheim;turenne;7.278169;48.086634;1 place turenne, 68230 turckheim;1 pl turenne, undefined turckheim;12 place turenne, 68230 turckheim;6 place turenne, 68230 turckheim;8 place turenne, 68230 turckheim
241;3 place pierre renaudel quartier saint croix, 33800 bordeaux;croix;-0.56172;44.831258;14 quai sainte-croix, 33800 bordeaux;13 quai sainte-croix, 33800 bordeaux;15 quai sainte-croix, 33800 bordeaux;11 quai sainte-croix, 33800 bordeaux;12 quai sainte-croix, 33800 bordeaux
242;7, rue des paradoux, 31000 toulouse;paradoux;1.44268;43.598336;7 rue des paradoux, 31000 toulouse;5 rue des paradoux, 31000 toulouse;9 rue des paradoux, 31000 toulouse;3 rue des paradoux, 31000 toulouse;4 rue des paradoux, 31000 toulouse
240;2 passage malaussena, 06000 nice;malaussena;7.262911;43.708046;1 passage malaussena, 06000 nice;2 passage malaussena, 06000 nice;19 avenue malaussena, 06000 nice;21 avenue malaussena, 06000 nice;25 avenue malaussena, 06000 nice
239;5 rue gioffredo, 06000 nice;gioffredo;7.276796;43.702407;5 rue gioffredo, 06000 nice;7 rue gioffredo, 06000 nice;8 rue gioffredo, 06000 nice;9 rue gioffredo, 06000 nice;6 rue gioffredo, 06000 nice
238;3, boulevard de la madeleine, 75001 paris;madeleine;2.32733;48.869839;5 boulevard de la madeleine, 75001 paris;3 boulevard de la madeleine, 75001 paris;4 boulevard de la madeleine, 75009 paris;6 boulevard de la madeleine, 75009 paris;1 boulevard de la madeleine, 75001 paris
237;route nationale 13, 78240 chambourcy;nationale 13;2.033724;48.908245;13 place nationale, 78500 sartrouville;13 route nationale 191, 78126 aulnay-sur-mauldre;13 rue nationale, 95000 cergy;13 rue nationale, 78970 mézières-sur-seine;13 route nationale 10, 78310 coignières
236;28 rue du château, 05220 le monêtier-les-bains;château;6.507682;44.9767;36 rue du château, 05220 undefined;14 rue du château, 05220 undefined;1 rue du château, 05220 undefined;52 rue du château, 05220 undefined;99 rue du château, 05220 undefined
235;14 avenue claude vellefaux, 75010 paris;vellefaux;2.370125;48.872904;14 avenue claude vellefaux, 75010 paris;16 avenue claude vellefaux, 75010 paris;12 avenue claude vellefaux, 75010 paris;10 avenue claude vellefaux, 75010 paris;1 avenue claude vellefaux, 75010 paris
234;3, rue du marais, 60870 villers-saint-paul;marais;-1.618512;48.112937;1 rue du petit marais, 35510 cesson-sévigné;14 rue du petit marais, 35510 cesson-sévigné;4 rue du petit marais, 35510 cesson-sévigné;2 rue du petit marais, 35510 cesson-sévigné;8 rue du petit marais, 35510 cesson-sévigné
233;6, place sainte marie, 71150 rully;marie;4.73965;46.875213;6 place sainte-marie, 71150 rully;8 place sainte-marie, 71150 rully;16 place sainte-marie, 71150 rully;14 place sainte-marie, 71150 rully;18 place sainte-marie, 71150 rully
232;16 avenue de l'opéra, 75001 paris;l'opéra;2.334892;48.865487;16 avenue de l'opéra, 75001 paris;14 avenue de l'opéra, 75001 paris;18 avenue de l'opéra, 75001 paris;13 avenue de l'opéra, 75001 paris;11 avenue de l'opéra, 75001 paris
231;94 rue du général de gaulle, 68128 village-neuf;gaulle;7.570928;47.605329;94 rue du général de gaulle, 68128 basel;92 rue du général de gaulle, 68128 basel;85 rue du général de gaulle, 68128 basel;90 rue du général de gaulle, 68128 basel;81 rue du général de gaulle, 68128 basel
230;17, rue des petits-champs, 75001 paris;petits-champs;2.338;48.866484;2 rue des petits-champs, 1400 undefined;4 rue des petits-champs, 1400 undefined;6 rue des petits-champs, 1400 undefined;8 rue des petits-champs, 1400 undefined;12 rue des petits-champs, 1400 undefined
229;18, rue des combattants, 13600 la ciotat;combattants;5.60778;43.174432;14 rue des combattants, 13600 la ciotat;17 rue des combattants, 13600 la ciotat;18 rue des combattants, 13600 la ciotat;12 rue des combattants, 13600 la ciotat;15 rue des combattants, 13600 la ciotat
228;51 avenue du dr arnold netter, 75012 paris;netter;2.40526;48.84413;51 avenue du docteur arnold netter, 75012 paris;53 avenue du docteur arnold netter, 75012 paris;47 avenue du docteur arnold netter, 75012 paris;49 avenue du docteur arnold netter, 75012 paris;46 avenue du docteur arnold netter, 75012 paris
227;105 avenue des célestins, 03200 vichy;célestins;3.430088;46.126182;105 avenue des célestins, 03200 vichy;107 avenue des célestins, 03200 vichy;103 avenue des célestins, 03200 vichy;109 avenue des célestins, 03200 vichy;101 avenue des célestins, 03200 vichy
226;9 chemin canto cigalo, 13210 saint-rémy-de-provence;cigalo;4.841181;43.785487;9 chemin canto cigalo, 13210 saint-rémy-de-provence;5002 chemin canto cigalo, 13210 saint-rémy-de-provence;5005 chemin canto cigalo, 13210 saint-rémy-de-provence;0 chemin canto cigalo, 13210 saint-rémy-de-provence;9009 chemin canto cigalo, 13210 saint-rémy-de-provence
225;115 avenue de la division leclerc, 95880 enghien-les-bains;leclerc;2.31;48.972792;115 avenue de la division leclerc, 95880 enghien-les-bains;150 avenue de la division leclerc, 95160 montmorency;152 avenue de la division leclerc, 95160 enghien-les-bains;117 avenue de la division leclerc, 95880 enghien-les-bains;113 avenue de la division leclerc, 95880 enghien-les-bains
224;11, passage central, 68100 mulhouse;central;7.34072;47.74755;11 passage central, 68100 mulhouse;1 passage central, 68100 mulhouse;19 passage central, 68100 mulhouse;21 passage central, 68100 mulhouse;23 passage central, 68100 mulhouse
223;74 rue de france, 06000 nice;france;7.254685;43.694926;74 rue de france, 06000 nice;72 rue de france, 06000 nice;103 rue de france, 06000 nice;105 rue de france, 06000 nice;76 rue de france, 06000 nice
222;9 rue denoyez, 75020 paris;denoyez;2.378383;48.871489;9 rue dénoyez, 75020 paris;7 rue dénoyez, 75020 paris;12 rue dénoyez, 75020 paris;14 rue dénoyez, 75020 paris;10 rue dénoyez, 75020 paris
221;96 route du polygone, 67100 strasbourg;polygone;7.75929;48.56555;96 route du polygone, 67100 strasbourg;94 route du polygone, 67100 strasbourg;92 route du polygone, 67100 strasbourg;107 route du polygone, 67100 strasbourg;97 route du polygone, 67100 strasbourg
220;36 boulevard de la gare, 95210 saint-gratien;la gare;2.285414;48.964166;87 quai de la gare, 75013 paris;91 quai de la gare, 75013 paris;85 quai de la gare, 75013 paris;83 quai de la gare, 75013 paris;81 quai de la gare, 75013 paris
219;9 quai du lazaret, 13002 marseille;lazaret;5.364962;43.306059;1 rue du lazaret, 06300 nice;284 chemin du lazaret, 06230 villefranche-sur-mer;29 chemin du lazaret, 06230 villefranche-sur-mer;181 chemin du lazaret, 06230 villefranche-sur-mer;322 chemin du lazaret, 06230 villefranche-sur-mer
217;5 rue guy de maupassant, 76190 yvetot;maupassant;0.753141;49.618231;3 rue guy de maupassant, 76190 yvetot;1 rue guy de maupassant, 76190 yvetot;5 rue guy de maupassant, 76190 yvetot;7 rue guy de maupassant, 76190 yvetot;24 rue guy de maupassant, 76190 yvetot
218;le bourg, 24220 vézac;bourg;1.16434;44.835725;1 le bourg, 24220 undefined;2 le bourg, 24220 undefined;28 route du bourg, 24200 undefined;52 route du bourg, 24200 undefined;450 route du bourg, 24200 vitrac
216;3 rue de l'isly, 75008 paris;l'isly;2.326103;48.874644;3 rue de l'isly, 75008 paris;5 rue de l'isly, 75008 paris;4 rue de l'isly, 75008 paris;7 rue de l'isly, 75008 paris;2 rue de l'isly, 75008 paris
215;9, avenue du drapeau, 21000 dijon;drapeau;5.04352;47.33068;9 avenue du drapeau, 21000 dijon;15 avenue du drapeau, 21000 dijon;11 avenue du drapeau, 21000 dijon;7 avenue du drapeau, 21000 dijon;10 avenue du drapeau, 21000 dijon
214;24, rue de cotte, 75012 paris;cotte;2.37824;48.850233;24 rue de cotte, 75012 paris;22 rue de cotte, 75012 paris;31 rue de cotte, 75012 paris;26 rue de cotte, 75012 paris;29 rue de cotte, 75012 paris
213;3, boulevard du maréchal de lattre de tassigny, 49400 saumur;tassigny;-0.08904;47.261612;51 boulevard du maréchal de lattre de tassigny, 49400 saumur;1 boulevard du maréchal de lattre de tassigny, 49400 saumur;24 rue de lattre de tassigny, 49700 doué-la-fontaine;22 rue de lattre de tassigny, 49700 doué-la-fontaine;20 rue de lattre de tassigny, 49700 doué-la-fontaine
212;1, avenue édouard vii, 64000 pau;édouard vii;-0.35868;43.296535;4 avenue édouard vii, 64000 pau;6 avenue édouard vii, 64000 pau;8 avenue édouard vii, 64000 pau;2 avenue édouard vii, 64000 pau;10 avenue édouard vii, 64000 pau
211;lieu dit 'les terres rouges', 51530 dizy;rouges';3.9619;49.067241;27 impasse des terres rouges, 51530 dizy;122 lotissement les terres rouges, 51530 dizy;156 lotissement les terres rouges, 51530 dizy;111 lotissement les terres rouges, 51530 dizy;170 lotissement les terres rouges, 51530 dizy
210;41, rue dauphine, 75006 paris;dauphine;2.3391;48.854445;41 rue dauphine, 75006 paris;36 rue dauphine, 75006 paris;34 rue dauphine, 75006 paris;38 rue dauphine, 75006 paris;32 rue dauphine, 75006 paris
209;31 avenue jean bart, 13620 carry-le-rouet;jean bart;5.17231;43.334469;31 avenue jean bart, 13620 sausset-les-pins;29 avenue jean bart, 13620 sausset-les-pins;36 avenue jean bart, 13620 sausset-les-pins;32 avenue jean bart, 13620 sausset-les-pins;30 avenue jean bart, 13620 sausset-les-pins
208;20 avenue de la fossé des pressoirs, 77700 magny-le-hongre;pressoirs;2.807264;48.87149;20 avenue de la fosse des pressoirs, 77700 magny-le-hongre;10 avenue de la fosse des pressoirs, 77700 magny-le-hongre;1 avenue de la fosse des pressoirs, 77700 magny-le-hongre;40 avenue de la fosse des pressoirs, 77700 magny-le-hongre;50 avenue de la fosse des pressoirs, 77700 magny-le-hongre
207;2 rue saint-michel, 54000 nancy;saint-michel;6.179157;48.696866;2 rue saint-michel, 54000 nancy;1 rue saint-michel, 54000 nancy;4 rue saint-michel, 54000 nancy;3 rue saint-michel, 54000 nancy;6 rue saint-michel, 54000 nancy
206;6 rue victor hugo, 93500 pantin;victor hugo;2.401795;48.895271;6 rue victor hugo, 93500 pantin;4 rue victor hugo, 93500 pantin;8 rue victor hugo, 93500 pantin;7 rue victor hugo, 93500 pantin;10 rue victor hugo, 93500 pantin
205;1 plage de l'estaque, 13016 marseille;l'estaque;5.317162;43.359548;2 plage de l'estaque, 13016 marseille;4 plage de l'estaque, 13016 marseille;250 plage de l'estaque, 13016 marseille;5000 plage de l'estaque, 13016 marseille;5001 plage de l'estaque, 13016 marseille
204;104 rue de charonne, 75011 paris;charonne;2.384887;48.854493;104 rue de charonne, 75011 paris;109 rue de charonne, 75011 paris;111 rue de charonne, 75011 paris;107 rue de charonne, 75011 paris;102 rue de charonne, 75011 paris
203;68 bis, avenue jean moulin, 75014 paris;moulin;2.32029;48.82515;68 avenue jean moulin, 75014 paris;66 avenue jean moulin, 75014 paris;70 avenue jean moulin, 75014 paris;47 avenue jean moulin, 75014 paris;49 avenue jean moulin, 75014 paris
201;rue de l'ouest, 06110 le cannet;l'ouest;7.01297;43.573056;7 rue de l'ouest, 06110 le cannet;5 rue de l'ouest, 06110 le cannet;3 rue de l'ouest, 06110 le cannet;4 rue de l'ouest, 06110 le cannet;2 rue de l'ouest, 06110 le cannet
202;78, rue rue haute saint maurice, 37500 chinon;maurice;0.23976;47.167061;45 rue haute saint-maurice, 37500 chinon;38 rue haute saint-maurice, 37500 chinon;44 rue haute saint-maurice, 37500 chinon;47 rue haute saint-maurice, 37500 chinon;49 rue haute saint-maurice, 37500 chinon
199;21 rue de l'horloge, 63200 riom;l'horloge;3.11371;45.894627;21 rue de l'horloge, 63200 riom;19 rue de l'horloge, 63200 riom;24 rue de l'horloge, 63200 riom;20 rue de l'horloge, 63200 riom;17 rue de l'horloge, 63200 riom
200;99 rue de la pompe, 75116 paris;pompe;2.278376;48.865065;99 rue de la pompe, 75016 paris;97 rue de la pompe, 75016 paris;95 rue de la pompe, 75016 paris;103 rue de la pompe, 75016 paris;93 rue de la pompe, 75016 paris
197;85, rue saint antoine, 75004 paris;antoine;2.36269;48.85448;83 rue saint-antoine, 75004 paris;81 rue saint-antoine, 75004 paris;85 rue saint-antoine, 75004 paris;79 rue saint-antoine, 75004 paris;77 rue saint-antoine, 75004 paris
198;8 rue du plan d'agde, 34000 montpellier;d'agde;3.875816;43.608295;8 rue du plan d'agde, 34000 montpellier;5 rue du plan d'agde, 34000 montpellier;10 rue du plan d'agde, 34000 montpellier;3 rue du plan d'agde, 34000 montpellier;7 rue du plan d'agde, 34000 montpellier
196;31 avenue george v, 75008 paris;george v;2.300169;48.868751;29 avenue george v, 75008 paris;31 avenue george v, 75008 paris;33 avenue george v, 75008 paris;35 avenue george v, 75008 paris;37 avenue george v, 75008 paris
195;93 rue de la victoire, 75009 paris;victoire;2.330768;48.874732;93 rue de la victoire, 75009 paris;94 rue de la victoire, 75009 paris;96 rue de la victoire, 75009 paris;91 rue de la victoire, 75009 paris;92 rue de la victoire, 75009 paris
194;quai la pérouse, 06700 saint-laurent-du-var;pérouse;7.18311;43.657037;0 quai la pérouse, 06700 saint-laurent-du-var;22 impasse jean-françois de la pérouse, 83390 cuers;17 impasse jean-françois de la pérouse, 83390 cuers;34 impasse jean-françois de la pérouse, 83390 cuers;21 impasse jean-françois de la pérouse, 83390 cuers
193;16 rue de tolbiac, 75013 paris;tolbiac;2.374643;48.829833;16 rue de tolbiac, 75013 paris;14 rue de tolbiac, 75013 paris;12 rue de tolbiac, 75013 paris;11 rue de tolbiac, 75013 paris;10 rue de tolbiac, 75013 paris
192;rue intérieure, 75008 paris;intérieure;2.325605;48.875994;3 rue intérieure, 75008 paris;9001 rue intérieure, 75008 paris;1 rue intérieure, 75008 paris;9004 rue intérieure, 75008 paris;5 rue intérieure, 75008 paris
191;45 rue saint-charles, 31000 toulouse;saint-charles;1.442397;43.610046;43 rue saint-charles, 31000 toulouse;45 rue saint-charles, 31000 toulouse;41 rue saint-charles, 31000 toulouse;39 rue saint-charles, 31000 toulouse;37 rue saint-charles, 31000 toulouse
190;37, rue malar, 75007 paris;malar;2.30626;48.859512;37 rue malar, 75007 paris;28 rue malar, 75007 paris;26 rue malar, 75007 paris;35 rue malar, 75007 paris;24 rue malar, 75007 paris
189;22, rue de ribosi domaine des duc, 31490 léguevin;des duc;1.25737;43.602535;484 chemin des ducs, 82800 undefined;92 chemin des ducs, 82800 undefined;32 rue des frères duclos, 82300 caussade;34 rue des frères duclos, 82300 caussade;30 rue des frères duclos, 82300 caussade
188;22 rue pairolière, 06300 nice;pairolière;7.279059;43.699655;22 rue pairolière, 06300 nice;13 rue pairolière, 06300 nice;15 rue pairolière, 06300 nice;11 rue pairolière, 06300 nice;20 rue pairolière, 06300 nice
187;11, faubourg saint-michel, 44350 guérande;saint-michel;-2.42611;47.32706;11 faubourg saint-michel, 44350 guérande;9 faubourg saint-michel, 44350 guérande;10 faubourg saint-michel, 44350 guérande;7 faubourg saint-michel, 44350 guérande;12 faubourg saint-michel, 44350 guérande
186;16 rue sedaine, 75011 paris;sedaine;2.372169;48.85579;16 rue sedaine, 75011 paris;14 rue sedaine, 75011 paris;11 rue sedaine, 75011 paris;18 rue sedaine, 75011 paris;13 rue sedaine, 75011 paris
185;49 cours marc-antoine brillier, 38200 vienne;brillier;4.87295;45.521955;47 cours brillier, 38200 vienne;45 cours brillier, 38200 vienne;49 cours brillier, 38200 vienne;51 cours brillier, 38200 vienne;43 cours brillier, 38200 vienne
184;7 allée des marettes, 38300 bourgoin-jallieu;marettes;5.277516;45.584829;7 allée des marettes, 38300 bourgoin-jallieu;9 allée des marettes, 38300 bourgoin-jallieu;11 allée des marettes, 38300 bourgoin-jallieu;5 allée des marettes, 38300 bourgoin-jallieu;3 allée des marettes, 38300 bourgoin-jallieu
183;17 place de l hôtel de ville, 71700 tournus;ville;4.912382;46.561518;17 place de l'hôtel de ville, 71700 tournus;21 place de l'hôtel de ville, 71700 tournus;23 place de l'hôtel de ville, 71700 tournus;15 place de l'hôtel de ville, 71700 tournus;13 place de l'hôtel de ville, 71700 tournus
182;place auguste baret, 13790 châteauneuf-le-rouge;baret;5.567429;43.489238;5467 place auguste baret, 13790 châteauneuf-le-rouge;47 traverse de baret, 13100 undefined;45 traverse de baret, 13100 undefined;52 traverse de baret, 13100 undefined;43 traverse de baret, 13100 aix-en-provence
181;11b rue massenet, 06000 nice;massenet;7.26389;43.696097;11 rue massenet, 06000 nice;8 rue massenet, 06000 nice;9 rue massenet, 06000 nice;13 rue massenet, 06000 nice;6 rue massenet, 06000 nice
180;le guiben, 56330 camors;guiben;-3.009623;47.80018;5803 le guiben, 56330 undefined;6839 le guiben, 56330 undefined;;;
179;2, place saint germain, 45600 sully-sur-loire;germain;2.36797;47.76652;64 rue du faubourg saint-germain, 45600 sully-sur-loire;4 place saint-germain, 45600 sully-sur-loire;2 place saint-germain, 45600 sully-sur-loire;66 rue du faubourg saint-germain, 45600 sully-sur-loire;6 place saint-germain, 45600 sully-sur-loire
178;9 avenue du général de gaulle, 78140 vélizy-villacoublay;gaulle;2.183762;48.784707;9 avenue du général de gaulle, 78140 vélizy-villacoublay;11 avenue du général de gaulle, 78140 vélizy-villacoublay;13 avenue du général de gaulle, 78140 vélizy-villacoublay;8 avenue du général de gaulle, 78140 vélizy-villacoublay;33 avenue du général de gaulle, 78140 vélizy-villacoublay
177;45/47, rue albert rémy, 91130 ris-orangis;albert rémy;2.40781;48.656729;45 rue albert rémy, 91130 ris-orangis;47 rue albert rémy, 91130 ris-orangis;49 rue albert rémy, 91130 ris-orangis;9001 rue albert rémy, 91130 ris-orangis;9003 rue albert rémy, 91130 ris-orangis
175;27 rue richer, 75009 paris;richer;2.345057;48.873903;27 rue richer, 75009 paris;30 rue richer, 75009 paris;32 rue richer, 75009 paris;29 rue richer, 75009 paris;25 rue richer, 75009 paris
176;2a, route de lyon, 69530 brignais;de lyon;4.77141;45.678094;1684 route de chazelles sur lyon, 69610 chazelles-sur-lyon;1694 route de chazelles sur lyon, 69610 chazelles-sur-lyon;9008 rue de lyon, 42140 chazelles-sur-lyon;9006 rue de lyon, 42140 chazelles-sur-lyon;9007 rue de lyon, 42140 chazelles-sur-lyon
174;le jarier d'ancenis - d723, 44150 ancenis;- d723;-1.14124;47.377874;;;;;
173;45 espl. du maréchal leclerc, 62610 ardres;leclerc;1.977942;50.852876;45 esplanade du maréchal leclerc, 62610 ardres;53 esplanade du maréchal leclerc, 62610 ardres;33 esplanade du maréchal leclerc, 62610 ardres;25 esplanade du maréchal leclerc, 62610 ardres;81 esplanade du maréchal leclerc, 62610 ardres
172;15 boulevard denys puech, 12000 rodez;puech;2.577996;44.349699;15 boulevard denys puech, 12000 rodez;13 boulevard denys puech, 12000 rodez;17 boulevard denys puech, 12000 le monastère;9002 boulevard denys puech, 12000 le monastère;16 boulevard denys puech, 12000 rodez
171;10, rue des verriers, 69007 lyon;verriers;4.83671;45.743454;10 rue des verriers, 69007 lyon;5 rue des verriers, 69007 lyon;6 rue des verriers, 69007 lyon;7 rue des verriers, 69007 lyon;12 rue des verriers, 69007 lyon
170;113, grande rue de la guillotière, 69007 lyon;guillotière;4.84833;45.75099;113 grand-rue de la guillotière, 69007 lyon;115 grand-rue de la guillotière, 69007 lyon;117 grand-rue de la guillotière, 69007 lyon;107 grand-rue de la guillotière, 69007 lyon;106 grand-rue de la guillotière, 69007 lyon
169;81, rue de rochechouart, 75009 paris;rochechouart;2.34661;48.882205;79 rue de rochechouart, 75009 paris;78 rue de rochechouart, 75009 paris;81 rue de rochechouart, 75009 paris;80 rue de rochechouart, 75009 paris;76 rue de rochechouart, 75009 paris
167;5, avenue villermont, 06000 nice;villermont;7.26459;43.708961;5 avenue villermont, 06000 nice;3 avenue villermont, 06000 nice;6 avenue villermont, 06000 nice;7 avenue villermont, 06000 nice;4 avenue villermont, 06000 nice
168;74 quai des orfèvres, 75001 paris;orfèvres;2.34155;48.856828;76 quai des orfèvres, 75001 paris;74 quai des orfèvres, 75001 paris;72 quai des orfèvres, 75001 paris;70 quai des orfèvres, 75001 paris;68 quai des orfèvres, 75001 paris
166;85 avenue kléber, 75116 paris;kléber;2.288604;48.864479;85 avenue kléber, 75016 paris;83 avenue kléber, 75016 paris;87 avenue kléber, 75016 paris;81 avenue kléber, 75016 paris;110 avenue kléber, 75016 paris
165;4 rue jacques manuel, 66000 perpignan;manuel;2.89543;42.700403;4 rue jacques manuel, 66000 perpignan;2 rue jacques manuel, 66000 perpignan;1 rue jacques manuel, 66000 perpignan;6 place manuel de falla, 66000 perpignan;7 place manuel de falla, 66000 perpignan
163;22 rue merigonde, 81100 castres;merigonde;2.253731;43.602116;22 rue merigonde, 81100 castres;18 rue merigonde, 81100 castres;26 rue merigonde, 81100 castres;16 rue merigonde, 81100 castres;28 rue merigonde, 81100 castres
164;10 allée des tullistes, 69130 écully;tullistes;4.779408;45.775211;12 allée des tullistes, 69130 écully;10 allée des tullistes, 69130 écully;8 allée des tullistes, 69130 écully;6 allée des tullistes, 69130 écully;14 allée des tullistes, 69130 écully
162;10, route d'etrez, 01340 montrevel-en-bresse;d'etrez;5.13013;46.336394;14 route d'étrez, 01340 montrevel-en-bresse;6 route d'étrez, 01340 montrevel-en-bresse;23 route d'étrez, 01340 montrevel-en-bresse;16 route d'étrez, 01340 montrevel-en-bresse;18 route d'étrez, 01340 montrevel-en-bresse
161;12 rue neuve, 69002 lyon;neuve;4.835165;45.765107;12 rue neuve, 69002 lyon;14 rue neuve, 69002 lyon;9 rue neuve, 69001 lyon;11 rue neuve, 69001 lyon;6 rue neuve, 69002 lyon
159;17 avenue du bel air, 75012 paris;bel air;2.396977;48.846383;0 centre commercial du bel air, 78120 rambouillet;9601 centre commercial du bel air, 78120 rambouillet;107 rue de bel air, 45110 undefined;880 rue de bel air, 45140 undefined;6 parc du bel air, 76750 buchy
160;avenue eugène donadeï, 06700 saint-laurent-du-var;donadeï;7.195204;43.659688;180 avenue eugène donadei, 06700 saint-laurent-du-var;188 avenue eugène donadei, 06700 saint-laurent-du-var;194 avenue eugène donadei, 06700 saint-laurent-du-var;260 avenue eugène donadei, 06700 saint-laurent-du-var;317 avenue eugène donadei, 06700 saint-laurent-du-var
158;6 boulevard du général de gaulle, 91210 draveil;gaulle;2.39194;48.687691;4 boulevard du général de gaulle, 91210 montgeron;6 boulevard du général de gaulle, 91210 montgeron;8 boulevard du général de gaulle, 91210 montgeron;2 boulevard du général de gaulle, 91210 montgeron;5 boulevard du général de gaulle, 91210 montgeron
157;33 rue guersant, 75017 paris;guersant;2.288784;48.881609;33 rue guersant, 75017 paris;35 rue guersant, 75017 paris;31 rue guersant, 75017 paris;37 rue guersant, 75017 paris;39 rue guersant, 75017 paris
156;1 place des marronniers, 37250 montbazon;marronniers;0.713464;47.287369;1 place des marronniers, 37250 montbazon;3 place des marronniers, 37250 montbazon;5 place des marronniers, 37250 montbazon;6398 place des marronniers, 37250 montbazon;7 place des marronniers, 37250 montbazon
155;79 rue saint-dominique, 75007 paris;saint-dominique;2.308696;48.859562;79 rue saint-dominique, 75007 paris;77 rue saint-dominique, 75007 paris;81 rue saint-dominique, 75007 paris;64 rue saint-dominique, 75007 paris;75 rue saint-dominique, 75007 paris
153;10 rue brochant, 75017 paris;brochant;2.317572;48.888427;10 rue brochant, 75017 paris;12 rue brochant, 75017 paris;11 rue brochant, 75017 paris;13 rue brochant, 75017 paris;8 rue brochant, 75017 paris
154;103 rue la boétie, 75008 paris;boétie;2.3071;48.871352;118 rue la boétie, 75008 paris;103 rue la boétie, 75008 paris;101 rue la boétie, 75008 paris;120 rue la boétie, 75008 paris;107 rue la boétie, 75008 paris
151;28 rue kuhn, 67000 strasbourg;rue kuhn;7.737;48.584983;28 rue kuhn, 67000 strasbourg;26 rue kuhn, 67000 strasbourg;19 rue kuhn, 67000 strasbourg;17 rue kuhn, 67000 strasbourg;24 rue kuhn, 67000 strasbourg
152;9 place du concert, 59800 lille;concert;3.06114;50.642067;7 place du concert, 59800 lille;9 place du concert, 59800 lille;5 place du concert, 59800 lille;11 place du concert, 59800 lille;13 place du concert, 59800 lille
150;place diana, 34280 la grande-motte;diana;4.091116;43.556909;56 place diana, 34280 la grande-motte;59 place diana, 34280 la grande-motte;67 place diana, 34280 la grande-motte;55 place diana, 34280 la grande-motte;51 place diana, 34280 la grande-motte
149;18 rue de paris, 94220 charenton-le-pont;paris;2.41868;48.818725;18 rue de paris, 94220 charenton-le-pont;16 rue de paris, 94220 charenton-le-pont;20 rue de paris, 94220 charenton-le-pont;14 rue de paris, 94220 charenton-le-pont;15 rue de paris, 94220 charenton-le-pont
148;caillau, 46700 vire-sur-lot;caillau;1.101212;44.480223;5946 le caillau, 46700 undefined;5170 le caillau, 46700 undefined;5077 le caillau, 46700 undefined;5134 le caillau, 46700 undefined;5076 le caillau, 46700 undefined
147;52 rue de genève, 01210 ferney-voltaire;genève;6.11508;46.252663;52 rue de geneve, 01210 ferney-voltaire;50 rue de geneve, 01210 ferney-voltaire;49 rue de geneve, 01210 ferney-voltaire;5001 rue de geneve, 01210 ferney-voltaire;55 rue de geneve, 01210 ferney-voltaire
146;61, rue des trois frères, 75018 paris;frères;2.33822;48.885624;58 rue des 3 frères, 75018 paris;63 rue des 3 frères, 75018 paris;61 rue des 3 frères, 75018 paris;56 rue des 3 frères, 75018 paris;60 rue des 3 frères, 75018 paris
145;3212 chemin de tanvol, 01440 viriat;tanvol;5.265345;46.239666;3212 chemin de tanvol, 01440 undefined;3200 chemin de tanvol, 01440 undefined;6246 carrefour de tanvol, 01440 undefined;3156 chemin de tanvol, 01440 undefined;3118 chemin de tanvol, 01440 undefined
143;25, place de bethune, 59000 lille;bethune;3.06237;50.632545;25 place de béthune, 59800 lille;23 place de béthune, 59800 lille;18 place de béthune, 59800 lille;21 place de béthune, 59800 lille;14 place de béthune, 59800 lille
144;3 avenue de la république, 75011 paris;république;2.3674;48.866747;3 avenue de la république, 75011 paris;5 avenue de la république, 75011 paris;7 avenue de la république, 75011 paris;14 avenue de la république, 75011 paris;16 avenue de la république, 75011 paris
142;1 rue pierre brossolette, 95130 le plessis-bouchard;brossolette;2.235647;49.001288;2 rue pierre brossolette, 95130 le plessis-bouchard;1 rue pierre brossolette, 95130 le plessis-bouchard;9001 rue pierre brossolette, 95130 le plessis-bouchard;3 rue pierre brossolette, 95130 le plessis-bouchard;4 rue pierre brossolette, 95130 le plessis-bouchard
141;12, quai marc seguin, 07300 tournon-sur-rhône;seguin;4.83394;45.068135;14 quai marc seguin, 07300 tournon-sur-rhône;12 quai marc seguin, 07300 tournon-sur-rhône;16 quai marc seguin, 07300 tournon-sur-rhône;10 quai marc seguin, 07300 tournon-sur-rhône;8 quai marc seguin, 07300 tournon-sur-rhône
140;118 rue véron, 94140 alfortville;véron;2.414732;48.807528;139 rue véron, 94140 alfortville;118 rue véron, 94140 alfortville;141 rue véron, 94140 alfortville;114 rue véron, 94140 alfortville;120 rue véron, 94140 alfortville
139;route de murs, null gordes;de murs;5.202583;43.920245;5189 route de murs, 84220 undefined;5809 route de murs, 84220 gordes;6844 route de murs, 84220 gordes;5191 route de murs, 84220 gordes;5406 route de murs, 84220 undefined
138;19 rue georges clemenceau, 22410 saint-quay-portrieux;clemenceau;-2.829297;48.646713;25 rue georges clemenceau, 22410 portrieux;20 rue georges clemenceau, 22410 portrieux;18 rue georges clemenceau, 22410 portrieux;22 rue georges clemenceau, 22410 portrieux;23 rue georges clemenceau, 22410 portrieux
137;25 rue jeanne d'arc, 22410 saint-quay-portrieux;d'arc;-2.837701;48.654316;25 rue jeanne d'arc, 22410 portrieux;5499 rue jeanne d'arc, 22410 portrieux;27 rue jeanne d'arc, 22410 portrieux;29 rue jeanne d'arc, 22410 portrieux;40 rue jeanne d'arc, 22410 portrieux
136;4 boulevard de port-royal, 75005 paris;port-royal;2.350901;48.837143;4 boulevard de port-royal, 75005 paris;6 boulevard de port-royal, 75005 paris;8 boulevard de port-royal, 75005 paris;10 boulevard de port-royal, 75005 paris;3 boulevard de port-royal, 75013 paris
135;26, avenue des champs elysées, 75008 paris;elysées;2.30855;48.86944;22 avenue des champs élysées, 75008 paris;28 avenue des champs élysées, 75008 paris;1 galerie élysées 26, 75008 paris;18 avenue des champs élysées, 75008 paris;26 avenue des champs élysées, 75008 paris
134;175 grande rue charles de gaulles, 94130 nogent-sur-marne;gaulles;2.480569;48.835766;2 place charles de gaulles, 60126 longueil-sainte-marie;1 place charles de gaulles, 60126 longueil-sainte-marie;3 place charles de gaulles, 60126 longueil-sainte-marie;22 charles de gaullestraat, 9600 ronse;24 charles de gaullestraat, 9600 ronse
133;3 rue charles vii, 94130 nogent-sur-marne;charles vii;2.485696;48.836777;3 rue charles vii, 94130 nogent-sur-marne;5 rue charles vii, 94130 nogent-sur-marne;2 rue charles vii, 94130 nogent-sur-marne;6 rue charles vii, 94130 nogent-sur-marne;7 rue charles vii, 94130 nogent-sur-marne
132;12 rue piliers de tutelle, 33000 bordeaux;tutelle;-0.57351;44.841484;12 rue piliers de tutelle, 33000 bordeaux;10 rue piliers de tutelle, 33000 bordeaux;14 rue piliers de tutelle, 33000 bordeaux;15 rue piliers de tutelle, 33000 bordeaux;11 rue piliers de tutelle, 33000 bordeaux
131;41, rue de la rochefoucauld, 75009 paris;rochefoucauld;2.33478;48.87983;41 rue de la rochefoucauld, 75009 paris;39 rue de la rochefoucauld, 75009 paris;43 rue de la rochefoucauld, 75009 paris;37 rue de la rochefoucauld, 75009 paris;46 rue de la rochefoucauld, 75009 paris
130;12 rue de charonne, 75011 paris;charonne;2.37443;48.852487;12 rue de charonne, 75011 paris;14 rue de charonne, 75011 paris;7 rue de charonne, 75011 paris;9 rue de charonne, 75011 paris;10 rue de charonne, 75011 paris
129;restaurant, 30630 montclus;restaurant;4.44107;44.262907;1214 chemin du restaurant, 30130 undefined;1115 chemin du restaurant, 30130 undefined;1107 chemin du restaurant, 30130 undefined;887 chemin du restaurant, 30130 undefined;5166 chemin du restaurant, 30130 undefined
128;12 rue bourgeot, 94240 l'haÿ-les-roses;bourgeot;2.33633;48.778666;14 rue bourgeot, 94240 l'haÿ-les-roses;12 rue bourgeot, 94240 l'haÿ-les-roses;9 rue bourgeot, 94240 l'haÿ-les-roses;7 rue bourgeot, 94240 l'haÿ-les-roses;16 rue bourgeot, 94240 l'haÿ-les-roses
127;8, rue jean burguet, 33000 bordeaux;burguet;-0.57815;44.83444;8 rue jean burguet, 33000 bordeaux;10 rue jean burguet, 33000 bordeaux;6 rue jean burguet, 33000 bordeaux;12 rue jean burguet, 33000 bordeaux;2 rue jean burguet, 33000 bordeaux
126;27, route de saint omer, 59380 socx;saint omer;2.42142;50.93432;41 route de saint omer, 59470 undefined;1 rue de saint omer, 62310 audincthun;9003 route de saint-omer, 59380 socx;28 route de saint-omer, 59380 socx;29 route de saint-omer, 59380 socx
125;4 rue pierre leroux, 75007 paris;leroux;2.318569;48.850161;4 rue pierre leroux, 75007 paris;1 rue pierre leroux, 75007 paris;6 rue pierre leroux, 75007 paris;8 rue pierre leroux, 75007 paris;10 rue pierre leroux, 75007 paris
124;43, rue de seine, 75006 paris;seine;2.33688;48.855366;43 rue de seine, 75006 paris;34 rue de seine, 75006 paris;32 rue de seine, 75006 paris;41 rue de seine, 75006 paris;36 rue de seine, 75006 paris
123;84 avenue secrétan, 75019 paris;secrétan;2.377906;48.878971;84 avenue secretan, 75019 paris;82 avenue secretan, 75019 paris;91 avenue secretan, 75019 paris;89 avenue secretan, 75019 paris;93 avenue secretan, 75019 paris
122;3 rue poissonnière, 75002 paris;poissonnière;2.34764;48.868593;3 rue poissonnière, 75002 paris;4 rue poissonnière, 75002 paris;2 rue poissonnière, 75002 paris;5 rue poissonnière, 75002 paris;6 rue poissonnière, 75002 paris
121;177 rue sainte-catherine, 33000 bordeaux;sainte-catherine;-0.573466;44.835254;177 rue sainte-catherine, 33000 bordeaux;179 rue sainte-catherine, 33000 bordeaux;176 rue sainte-catherine, 33000 bordeaux;175 rue sainte-catherine, 33000 bordeaux;181 rue sainte-catherine, 33000 bordeaux
120;8, place du marché gayot, 67000 strasbourg;gayot;7.75348;48.582757;7 place du marche gayot, 67000 strasbourg;8 place du marche gayot, 67000 strasbourg;5 place du marche gayot, 67000 strasbourg;10 place du marche gayot, 67000 strasbourg;4 place du marche gayot, 67000 strasbourg
119;30 avenue victor hugo, 93320 les pavillons-sous-bois;victor hugo;2.514325;48.909539;30 avenue victor hugo, 93320 les pavillons-sous-bois;32 avenue victor hugo, 93320 les pavillons-sous-bois;28 avenue victor hugo, 93320 les pavillons-sous-bois;34 avenue victor hugo, 93320 les pavillons-sous-bois;25 avenue victor hugo, 93320 les pavillons-sous-bois
118;16, cours de vincennes, 75012 paris;vincennes;2.40039;48.84746;16 cours de vincennes, 75012 paris;14 cours de vincennes, 75012 paris;18 cours de vincennes, 75012 paris;12 cours de vincennes, 75012 paris;10 cours de vincennes, 75012 paris
117;38 avenue de lanessan, 69410 champagne-au-mont-d'or;lanessan;4.793149;45.794627;38 avenue de lanessan, 69410 champagne-au-mont-d'or;36 avenue de lanessan, 69410 champagne-au-mont-d'or;40 avenue de lanessan, 69410 champagne-au-mont-d'or;47 avenue de lanessan, 69410 champagne-au-mont-d'or;49 avenue de lanessan, 69410 champagne-au-mont-d'or
116;70 rue vincent raspail, 83130 la garde;raspail;6.009889;43.125379;3 impasse vincent raspail, 83130 la garde;70 impasse vincent raspail, 83130 la garde;70 rue vincent raspail, 83130 la garde;14 impasse vincent raspail, 83130 la garde;64 rue vincent raspail, 83130 la garde
115;2, rue des fantasques, 69001 lyon;fantasques;4.83706;45.773803;1 rue des fantasques, 69001 lyon;2 rue des fantasques, 69001 lyon;4 rue des fantasques, 69001 lyon;6 ruelle des fantasques, 69001 lyon;5 rue des fantasques, 69001 lyon
114;9 place du marché, 34250 palavas-les-flots;marché;3.93157;43.528076;10 place du marche, 34250 palavas-les-flots;6 place du marche, 34250 palavas-les-flots;9 place du marche, 34250 palavas-les-flots;1 place du marche, 34250 palavas-les-flots;7 place du marche, 34250 palavas-les-flots
113;24 rue du général leclerc, 78000 versailles;leclerc;2.126446;48.798926;24 rue du général leclerc, 78000 versailles;22 rue du général leclerc, 78000 versailles;26 rue du général leclerc, 78000 versailles;20 rue du général leclerc, 78000 versailles;28 rue du général leclerc, 78000 versailles
111;6 passage brady, 75010 paris;brady;2.355302;48.871239;57 passage brady, 75010 paris;7 passage brady, 75010 paris;58 passage brady, 75010 paris;59 passage brady, 75010 paris;65 passage brady, 75010 paris
